,lat,long,name,addr,uri,reviews,num_reviews,loc_type,description,price,zone
0,40.7034056,-73.9923495,Museum of Food and Drink MOFAD,"55 Water St 2nd Floor, Brooklyn, NY 11201, USA",https://www.mofad.org/,Rating: 4.2,12301,Culture,museum,price level very cheap,DUMBO/Vinegar Hill
1,40.7038431,-73.9870756,AIR,"155 Plymouth St, Brooklyn, NY 11201, USA",http://www.airgallery.org/,Rating: 4.6,18674,Culture,art gallery,price level very cheap,DUMBO/Vinegar Hill
2,40.7037479,-73.9878323,Hudson Wilder,"142 Plymouth St, Brooklyn, NY 11201, USA",https://hudsonwilder.com/,Rating: 4.7,14464,Culture,"home goods store, gift shop, art gallery, cafe, store, food",price level very cheap,DUMBO/Vinegar Hill
3,40.69909260000001,-73.9952017,Truman Capotes House,"70 Willow St, Brooklyn, NY 11201, USA",No URL,Rating: 4.4,14012,Culture,"historical landmark, historical place, tourist attraction, museum",price level very cheap,Brooklyn Heights
4,40.7028115,-73.9905931,Higher Pictures,"45 Main St #723, Brooklyn, NY 11201, USA",http://www.higherpicturesgeneration.com/,Rating: 4.2,5412,Culture,art gallery,price level very cheap,DUMBO/Vinegar Hill
5,40.702399799999995,-73.9810057,Gallery Gaia,"79 Hudson Ave, Brooklyn, NY 11201, USA",https://artindumbo.com/gallery/gallery-gaia/,Rating: 5,15755,Culture,art gallery,price level very cheap,DUMBO/Vinegar Hill
6,40.7028059,-73.9843246,AMR Art DUMBO,"53 Bridge St #706, Brooklyn, NY 11201, USA",https://www.amrartdumbo.com/,Rating: 5,16567,Culture,art gallery,price level very cheap,DUMBO/Vinegar Hill
7,40.7028597,-73.98642339999999,The MoDE  The Museum of Digital Experiences,"65 Jay St, Brooklyn, NY 11201, USA",No URL,Rating: 3.9,19440,Culture,museum,price level very cheap,DUMBO/Vinegar Hill
8,40.7028059,-73.9843246,CREATIVEBLOCH STUDIO  GALLERY,"53 Bridge St #412, Brooklyn, NY 11201, USA",http://www.creativebloch.com/,Rating: 5,9295,Culture,art gallery,price level very cheap,DUMBO/Vinegar Hill
9,40.7036616,-73.98515080000001,Cierra Britton Gallery,"202b Plymouth St, Brooklyn, NY 11201, USA",https://cierrabritton.com/,Rating: 5,9346,Culture,art gallery,price level very cheap,DUMBO/Vinegar Hill
10,40.6983378,-73.9736053,Building 92,"63 Flushing Ave, Brooklyn, NY 11205, USA",http://bldg92.org/,Rating: 4.5,7015,Culture,"tourist attraction, museum",price level very cheap,Brooklyn Navy Yard
11,40.6975344,-73.97096359999999,Head Hi,"146 Flushing Ave, Brooklyn, NY 11205, USA",http://www.headhi.net/,Rating: 4.4,7044,Culture,"coffee shop, art gallery, cafe, gift shop, book store, food store, store, food",price level very cheap,Fort Greene
12,40.6975123,-73.9755468,Black Brick Project,"17 N Oxford St, Brooklyn, NY 11205, USA",http://www.blackbrickproject.com/,Rating: 5,9413,Culture,art gallery,price level very cheap,Fort Greene
13,40.6985551,-73.9712029,Posterfix Corp,"141 Flushing Ave, Brooklyn, NY 11205, USA",http://www.posterfix.com/,Rating: 4.6,1374,Culture,"art gallery, store",price level very cheap,Brooklyn Navy Yard
14,40.6980922,-73.9710207,Uncool Gallery,"141 Flushing Ave AKA Building 77, 1324A, Brooklyn, NY 11205, USA",https://uncoolgallery.com/,Rating: 5,14498,Culture,art gallery,price level very cheap,Brooklyn Navy Yard
15,40.6970543,-73.9649419,Kunstraum LLC,"20 Grand Ave Loft 509, Brooklyn, NY 11205, USA",http://www.kunstraumllc.com/,Rating: 4.8,7266,Culture,"art studio, art gallery",price level very cheap,Brooklyn Navy Yard
16,40.6963893,-73.9672626,Arty Goodness,"77 Washington Ave, Brooklyn, NY 11205, USA",https://artygoodness.com/,Rating: 5,17079,Culture,art gallery,price level very cheap,Brooklyn Navy Yard
17,40.696798,-73.968846,The Womens Darkroom  Gallery,"36 Waverly Ave #403, Brooklyn, NY 11205, USA",https://www.thewomensdarkroom.com/,Rating: 5,9298,Culture,art gallery,price level very cheap,Brooklyn Navy Yard
18,40.6970543,-73.9649419,Fort Makers,"20 Grand Ave, Brooklyn, NY 11205, USA",http://fortmakers.com/,Rating: 5,393,Culture,art gallery,price level very cheap,Brooklyn Navy Yard
19,40.6975275,-73.96121099999999,Taaffe Gallery,"50 Taaffe Pl, Brooklyn, NY 11205, USA",No URL,Rating: 5,17637,Culture,art gallery,price level very cheap,Clinton Hill
20,40.6974469,-73.9589178,Shtetl Art Gallery,"56 Franklin Ave, Brooklyn, NY 11205, USA",https://www.shtetlartgallery.com/,Rating: 5,15949,Culture,art gallery,price level very cheap,Bedford
21,40.6996642,-73.94975749999999,The Bishop,"630 Flushing Ave, Brooklyn, NY 11206, USA",http://thebishopgallery.com/,Rating: 4.7,16914,Culture,art gallery,price level very cheap,Bedford
22,40.6998241,-73.94809819999999,Re Art Show,"630 Flushing Ave, Brooklyn, NY 11206, USA",http://www.reart.show/,Rating: 5,4006,Culture,art gallery,price level very cheap,Bedford
23,40.69961300000001,-73.94792559999999,THE IW GALLERY,"630 Flushing Ave 1st Floor, Brooklyn, NY 11206, USA",https://www.theiwgallery.com/,Rating: 5,11244,Culture,art gallery,price level very cheap,Bedford
24,40.7038464,-73.98699690000001,usagi,"163 Plymouth St, Brooklyn, NY 11201, USA",http://usaginy.com/,Rating: 4.6,503,Culture,"art gallery, cafe, book store, home goods store, store, food",price level very cheap,DUMBO/Vinegar Hill
25,40.7041754,-73.98526749999999,John St Gallery,"70 John St, Brooklyn, NY 11201, USA",http://johnst.nyc/,Rating: 5,14418,Culture,art gallery,price level very cheap,DUMBO/Vinegar Hill
26,40.7037574,-73.9881497,ZAROLAT,"140 Plymouth St, Brooklyn, NY 11201, USA",https://www.zarolat.com/,Rating: 5,19323,Culture,art gallery,price level very cheap,DUMBO/Vinegar Hill
27,40.7073661,-73.96829420000002,Dreamers Welcome,"475 Kent Ave, Brooklyn, NY 11249, USA",http://www.dreamerswelco.me/,Rating: 5,18112,Culture,museum,price level very cheap,Williamsburg (South Side)
28,40.708526899999995,-73.954162,Soloway,"348 S 4th St #6, Brooklyn, NY 11211, USA",https://solowaygallery.com/,Rating: 5,925,Culture,art gallery,price level very cheap,Williamsburg (South Side)
29,40.705658199999995,-73.9517151,Cooler Gallery,"325 Rutledge St, Brooklyn, NY 11211, USA",http://www.cooler-gallery.com/,Rating: 4.9,8151,Culture,art gallery,price level very cheap,South Williamsburg
30,40.7085316,-73.954181,Aziza Mirzan,"348 S 4th St #1L, Brooklyn, NY 11211, USA",https://www.azizamirzan.com/,No rating,19511,Culture,"art gallery, art studio, store",price level very cheap,Williamsburg (South Side)
31,40.7071395,-73.9474418,ARTpartmentNYC,"63 Montrose Ave, Brooklyn, NY 11206, USA",No URL,No rating,9968,Culture,art gallery,price level very cheap,East Williamsburg
32,40.7045753,-73.94385799999999,ALIUME Art Gallery,"83 Seigel St, Brooklyn, NY 11206, USA",http://www.aliumeart.com/,Rating: 5,11025,Culture,art gallery,price level very cheap,East Williamsburg
33,40.7076691,-73.9457867,Land Back Hub,"104 Meserole St, Brooklyn, NY 11206, USA",http://www.ivcastellanos.com/land-back-hub-1,No rating,19699,Culture,art gallery,price level very cheap,East Williamsburg
34,40.702673,-73.94212,Gallery54,"54 Graham Ave, Brooklyn, NY 11206, USA",No URL,Rating: 4.3,11118,Culture,art gallery,price level very cheap,East Williamsburg
35,40.7076302,-73.9457614,STUDIO,"104 Meserole St, Brooklyn, NY 11206, USA",No URL,No rating,8294,Culture,art gallery,price level very cheap,East Williamsburg
36,40.7147484,-73.99355609999999,Museum at Eldridge Street,"12 Eldridge St, New York, NY 10002, USA",http://www.eldridgestreet.org/?utm_source=google&utm_medium=wix_google_business_profile&utm_campaign=9203637435846348570,Rating: 4.7,12172,Culture,"tourist attraction, museum",price level very cheap,Lower East Side
37,40.7120518,-73.99516059999999,Matcha 108,"108 Madison St, New York, NY 10002, USA",https://www.instagram.com/matcha_lounge_nyc?utm_source=ig_web_button_share_sheet&igsh=ZDNlZDc0MzIxNw==,Rating: 4.7,18398,Culture,"cafe, art gallery, tea house, clothing store, food, store",price level very cheap,Chinatown
38,40.7134703,-73.9922228,Blade Study,"17 Pike St, New York, NY 10002, USA",http://bladestudy.net/,Rating: 5,2387,Culture,art gallery,price level very cheap,Two Bridges/Seward Park
39,40.7163815,-73.9900542,Entrance,"Storefront R, 48 Ludlow St, New York, NY 10002, USA",http://entrance.nyc/,Rating: 4.9,3445,Culture,art gallery,price level very cheap,Lower East Side
40,40.7143641,-73.9916195,EUROPA,"125 Division St, New York, NY 10002, USA",http://europa.nyc/,Rating: 5,7978,Culture,art gallery,price level very cheap,Two Bridges/Seward Park
41,40.7138217,-73.980015,KatesFerri Projects,"561 Grand St, New York, NY 10002, USA",https://www.katesferriprojects.com/,Rating: 4.9,8974,Culture,art gallery,price level very cheap,Two Bridges/Seward Park
42,40.7136656,-73.9877724,Sitting Room Gallery,"195 Henry St, New York, NY 10002, USA",https://www.sittingroomgallery.ai/,Rating: 5,3206,Culture,art gallery,price level very cheap,Two Bridges/Seward Park
43,40.7147772,-73.9839516,Laurel Gitlen,"465 Grand St, New York, NY 10002, USA",http://www.laurelgitlen.com/,Rating: 5,3225,Culture,art gallery,price level very cheap,Two Bridges/Seward Park
44,40.714493399999995,-73.9824854,Concordia Studio,"311 east broadway NADA exhibition space 2nd floor, New York, NY 10002, USA",https://concordiastudio.co/artshow/,Rating: 5,10336,Culture,art gallery,price level very cheap,Two Bridges/Seward Park
45,40.7138465,-73.9802358,THINK1994,"563 Grand St, New York, NY 10002, USA",http://www.thnk1994.com/,Rating: 5,2659,Culture,art gallery,price level very cheap,Two Bridges/Seward Park
46,40.7143355,-73.9611974,Puerh Brooklyn teashop,"174 Grand St, Brooklyn, NY 11211, USA",http://www.puerhbrooklyn.com/,Rating: 4,10792,Culture,"tea house, art gallery, health, store",price level very cheap,Williamsburg (South Side)
47,40.7105986,-73.9635467,Williamsburg Art  Historical Center,"135 Broadway, Brooklyn, NY 11211, USA",http://www.wahcenter.net/,Rating: 4.5,13410,Culture,"tourist attraction, museum, historical place",price level very cheap,Williamsburg (South Side)
48,40.7129157,-73.9620424,Miriam Gallery,"319 Bedford Ave, Brooklyn, NY 11211, USA",http://www.miriamgallery.com/,Rating: 4.9,2599,Culture,"art gallery, book store, store",price level very cheap,Williamsburg (South Side)
49,40.7153706,-73.9631302,Eight of Swords Tattoo,"115 Grand St, Brooklyn, NY 11249, USA",http://www.8ofswords.com/,Rating: 4.7,13366,Culture,"art gallery, body art service, store",price level very cheap,Williamsburg (North Side)
50,40.7105609,-73.9645536,Not Another GALLERY,"Storefront, 109 Broadway, Brooklyn, NY 11249, USA",https://www.notanothergallery.com/,Rating: 5,17701,Culture,art gallery,price level very cheap,Williamsburg (South Side)
51,40.7134273,-73.9549377,Brooklyn Art Haus,"24 Marcy Ave, Brooklyn, NY 11211, USA",http://www.bkarthaus.com/,Rating: 4.9,9378,"Night Club, Bar","performing arts theater, art gallery, event venue, night club, bar",price level very cheap,Williamsburg (North Side)
52,40.7134776,-73.9592514,Choplet Gallery and Ceramic Studio,"238 Grand St, Brooklyn, NY 11211, USA",http://www.choplet.com/,Rating: 4.2,18696,Culture,"art studio, art gallery, store",price level very cheap,Williamsburg (South Side)
53,40.7157342,-73.9560632,SHAG a sexy shop  Sex Toy Store,"108 Roebling St, Brooklyn, NY 11211, USA",http://weloveshag.com/,Rating: 4.7,3086,Culture,"art gallery, gift shop, clothing store, store",price level very cheap,Williamsburg (North Side)
54,40.714014299999995,-73.9594177,Mociun Fine Jewelry  Home,"683 Driggs Ave, Brooklyn, NY 11211, USA",https://mociun.com/,Rating: 4.6,13843,Culture,"art gallery, jewelry store, home goods store, store",price level very cheap,Williamsburg (North Side)
55,40.713907899999995,-73.95580439999999,The City Reliquary Museum,"370 Metropolitan Ave, Brooklyn, NY 11211, USA",http://cityreliquary.org/,Rating: 4.3,6478,Culture,"museum, tourist attraction, event venue",price level very cheap,Williamsburg (North Side)
56,40.716686,-73.946609,CPR  Center for Performance Research,"361 Manhattan Ave, Brooklyn, NY 11211, USA",http://www.cprnyc.org/,Rating: 4.6,10120,Culture,"art gallery, performing arts theater, event venue",price level very cheap,East Williamsburg
57,40.7164948,-73.9454889,BOND Hardware,"144 Jackson St #1D, Brooklyn, NY 11211, USA",http://www.bond-hardware.com/,Rating: 4.8,4509,Culture,"art gallery, body art service, jewelry store, clothing store, store",price level very cheap,East Williamsburg
58,40.712756899999995,-73.9486259,Summertime,"145 Ainslie St, Brooklyn, NY 11211, USA",http://www.summertimegallery.org/,Rating: 4.8,15400,Culture,art gallery,price level very cheap,East Williamsburg
59,40.7113804,-73.9524548,LILOVEVE,"457 Grand St, Brooklyn, NY 11211, USA",http://www.liloveve.com/,Rating: 4.7,3074,Culture,"art gallery, jewelry store, store",price level very cheap,Williamsburg (South Side)
60,40.7111317,-73.953453,Carrie Able Gallery,"409 Keap St, Brooklyn, NY 11211, USA",http://carrieablegallery.com/,Rating: 4.2,13279,Culture,art gallery,price level very cheap,Williamsburg (South Side)
61,40.718818,-73.9900876,Tenement Museum,"103 Orchard St, New York, NY 10002, USA",https://www.tenement.org/,Rating: 4.6,8508,Culture,"tourist attraction, museum",price level very cheap,Lower East Side
62,40.718246,-73.9891093,International Center of Photography Museum,"84 Ludlow St, New York, NY 10002, USA",https://www.icp.org/,Rating: 4.3,449,Culture,"art gallery, museum",price level very cheap,Lower East Side
63,40.7189604,-73.9883548,Sour Mouse,"110 Delancey St, New York, NY 10002, USA",https://www.sourmousenyc.com/,Rating: 4.4,12736,"Night Club, Bar","bar, art gallery, event venue, night club, sports complex, sports activity location",price level very cheap,Lower East Side
64,40.7195864,-73.9892543,PERROTIN NEW YORK,"130 Orchard St, New York, NY 10002, USA",https://www.perrotin.com/,Rating: 4.8,9993,Culture,art gallery,price level very cheap,Lower East Side
65,40.717596799999995,-73.9901648,LAAMS,"74 Orchard St, New York, NY 10002, USA",http://laams.nyc/,Rating: 4.9,310,Culture,"clothing store, art gallery, book store, store",price level very cheap,Lower East Side
66,40.7235418,-73.9771256,Sprout Space,"271 E 7th St, New York, NY 10009, USA",No URL,No rating,2957,Culture,art gallery,price level very cheap,Alphabet City
67,40.7163016,-73.9658585,Haco NYC,"31 Grand St, Brooklyn, NY 11249, USA",https://haconyc.com/,Rating: 4.6,17113,Culture,"art gallery, food store, store, food",price level very cheap,Williamsburg (North Side)
68,40.7170066,-73.9656929,Somos Art House Collective,"240 Kent Ave, Brooklyn, NY 11249, USA",https://www.somosarthouse.com/,Rating: 5,8066,Culture,art gallery,price level very cheap,Williamsburg (North Side)
69,40.71626,-73.965413,Gregory Barsamian,"43 Grand St, Brooklyn, NY 11249, USA",http://gregorybarsamian.com/,Rating: 3.7,7317,Culture,museum,price level very cheap,Williamsburg (North Side)
70,40.7162966,-73.9657505,Holdens,"33 Grand St, Brooklyn, NY 11249, USA",No URL,No rating,11670,Culture,art gallery,price level very cheap,Williamsburg (North Side)
71,40.715804,-73.964086,Heirloom,"81 Grand St, Brooklyn, NY 11249, USA",http://heirloombk.com/,Rating: 4.8,14226,Culture,"art gallery, laundry, home goods store, store",price level very cheap,Williamsburg (North Side)
72,40.7187472,-73.9557975,Pierogi Gallery,"177 N 9th St, Brooklyn, NY 11211, USA",https://www.pierogi2000.com/,Rating: 4.8,6417,Culture,art gallery,price level very cheap,Williamsburg (North Side)
73,40.7163525,-73.9595284,het Labo Music and Art,"139 N 4th St, Brooklyn, NY 11249, USA",https://www.hetlabomusicandart.com/,Rating: 5,3582,Culture,art gallery,price level very cheap,Williamsburg (North Side)
74,40.7228879,-73.9552643,The Boiler,"191 N 14th St, Brooklyn, NY 11249, USA",http://theboiler191.com/,Rating: 4.8,17584,Culture,art gallery,price level very cheap,Greenpoint
75,40.7151376,-73.95321059999999,Okay Space Gallery,"281 N 7th St, Brooklyn, NY 11211, USA",https://www.okayspace.co/,Rating: 4.6,12710,Culture,art gallery,price level very cheap,Williamsburg (North Side)
76,40.7186942,-73.95659169999999,The Hollows,"151 Bedford Ave, Brooklyn, NY 11211, USA",No URL,Rating: 2.3,4444,Culture,art gallery,price level very cheap,Williamsburg (North Side)
77,40.717495199999995,-73.94503379999999,Williamsburg Art Framing,"417 Graham Ave, Brooklyn, NY 11211, USA",https://williamsburgartsframing.com/,Rating: 4.8,14885,Culture,"art gallery, home goods store, store",price level very cheap,East Williamsburg
78,40.7177604,-73.9447094,Snow Gallery,"430 Graham Ave, Brooklyn, NY 11211, USA",http://snowgallerynyc.com/,Rating: 4.7,8545,Culture,art gallery,price level very cheap,East Williamsburg
79,40.7186484,-73.94771659999999,Kehinde Wiley Studio Inc,"99 Richardson St, Brooklyn, NY 11211, USA",https://kehindewiley.com/about/,No rating,18220,Culture,art gallery,price level very cheap,Greenpoint
80,40.727080099999995,-73.9890052,Toy Tokyo,"91 2nd Ave, New York, NY 10003, USA",https://www.toytokyo.com/,Rating: 4.4,14321,Culture,"museum, store",price level moderate,East Village
81,40.7263366,-73.9912901,Gotham Dispensary  Bowery,"3 E 3rd St, New York, NY 10003, USA",https://www.gotham.nyc/?utm_source=google&utm_medium=organic&utm_campaign=google-business-profile-bowery,Rating: 4.8,2028,Culture,"art gallery, clothing store, home goods store, store",price level very cheap,East Village
82,40.7264133,-73.990448,La MaMa Experimental Theatre Club,"66 E 4th St, New York, NY 10003, USA",http://lamama.org/,Rating: 4.7,13123,Culture,"performing arts theater, art gallery, event venue",price level very cheap,East Village
83,40.7223376,-73.9928905,New Museum,"235 Bowery, New York, NY 10002, USA",https://www.newmuseum.org/,Rating: 4.2,10007,Culture,"tourist attraction, museum",price level expensive,Lower East Side
84,40.7246939,-73.99016569999999,Anthology Film Archives,"32 2nd Ave, New York, NY 10003, USA",http://www.anthologyfilmarchives.org/,Rating: 4.6,3549,Culture,"movie theater, tourist attraction, museum",price level very cheap,East Village
85,40.7258393,-73.98348510000001,96 Tears,"110 Avenue A, New York, NY 10009, USA",http://96tearsnyc.com/,Rating: 4.7,15141,"Culture, Bar","bar, museum, restaurant, food",price level very cheap,East Village
86,40.726145599999995,-73.98504609999999,The Brant Foundation,"421 E 6th St, New York, NY 10009, USA",https://www.brantfoundation.org/,Rating: 4.8,8756,Culture,"gift shop, museum, store",price level very cheap,East Village
87,40.7257661,-73.97794619999999,Museum of Reclaimed Urban Space MoRUS,"155 Loisaida Ave, New York, NY 10009, USA",https://www.morusnyc.org/about-morus/about-us/,Rating: 4.8,4945,Culture,"tourist attraction, museum",price level very cheap,Alphabet City
88,40.7225454,-73.9840627,Karma Gallery,"188 E 2nd St, New York, NY 10009, USA",http://karmakarma.org/,Rating: 4.5,11559,Culture,art gallery,price level very cheap,East Village
89,40.7234766,-73.98267059999999,Half Gallery,"235 E 4th St, New York, NY 10009, USA",http://www.halfgallery.com/,Rating: 4.6,16782,Culture,art gallery,price level very cheap,East Village
90,40.7265806,-73.9766532,Grace Exhibition Space for International Performance Art PerformanceArt Immersive,"182 Loisaida Ave, New York, NY 10009, USA",http://www.graceexhibitionspace.org/,Rating: 4.9,1402,Culture,art gallery,price level very cheap,Alphabet City
91,40.7271247,-73.9783427,Dacia Gallery,"621 E 11th St, New York, NY 10009, USA",http://daciagallery.com/,Rating: 4.7,8760,Culture,art gallery,price level very cheap,Alphabet City
92,40.7265641,-73.97871889999999,Piragua Art Space,"367 E 10th St #369, New York, NY 10009, USA",http://www.dasoentertainment.com/,Rating: 5,11452,Culture,"cultural center, art studio, art gallery, store",price level very cheap,Alphabet City
93,40.728775899999995,-73.97691929999999,14BC,"626 E 14th St, New York, NY 10009, USA",http://14bcgallery.org/,Rating: 4,17644,Culture,art gallery,price level very cheap,Alphabet City
94,40.7295818,-73.9595337,myplasticheart,"40 Greenpoint Ave, Brooklyn, NY 11222, USA",https://www.myplasticheart.com/,Rating: 4.6,13711,Culture,"art gallery, store",price level very cheap,Greenpoint
95,40.7280583,-73.9587191,Blackworknyc Private tattoo gallery,"42 West St, Brooklyn, NY 11222, USA",https://blackworknyc.as.me/,Rating: 5,5229,Culture,"art gallery, body art service, store",price level very cheap,Greenpoint
96,40.7284631,-73.9599072,Greenpoint Terminal Gallery,"67 West St #320, Brooklyn, NY 11222, USA",No URL,Rating: 4,18333,Culture,"art gallery, tourist attraction",price level very cheap,Greenpoint
97,40.728604399999995,-73.95937889999999,SUDESTADA,"67 West St Suite 513, Brooklyn, NY 11222, USA",https://lasudestada.com/,Rating: 5,4687,Culture,"art gallery, store",price level very cheap,Greenpoint
98,40.7245954,-73.9488635,Gallery Art,"123 Nassau Ave, Brooklyn, NY 11222, USA",https://galleryartand.square.site/,Rating: 5,12184,Culture,art gallery,price level very cheap,Greenpoint
99,40.7237618,-73.9536507,The Gallery at Dobbin Mews,"50-52 Dobbin St, Brooklyn, NY 11222, USA",http://thegalleryatdobbinmews.com/,No rating,839,Culture,art gallery,price level very cheap,Greenpoint
100,40.7267716,-73.94711579999999,BFD Firehouse Studios,"176 Norman Ave, Brooklyn, NY 11222, USA",No URL,No rating,712,Culture,art gallery,price level very cheap,Greenpoint
101,40.726231,-73.9524912,IFACArts,"735 Manhattan Ave, Brooklyn, NY 11211, USA",https://ifacarts.com/,No rating,2782,Culture,"art gallery, museum",price level very cheap,Greenpoint
102,40.7272413,-73.9452499,Auxiliary Projects,"212 Norman Ave, Brooklyn, NY 11222, USA",http://www.auxiliaryprojects.com/,Rating: 5,12679,Culture,art gallery,price level very cheap,Greenpoint
103,40.7284172,-73.9875484,Swiss Institute,"38 St Marks Pl, New York, NY 10003, USA",http://www.swissinstitute.net/,Rating: 4.4,11554,Culture,museum,price level very cheap,East Village
104,40.728991,-73.989316,Village Works,"12 St Marks Pl, New York, NY 10003, USA",http://villageworksnyc.com/,Rating: 4.4,7066,Culture,"book store, art gallery, store",price level very cheap,East Village
105,40.73496300000001,-73.987732,GoetheInstitut New York,"30 Irving Pl, New York, NY 10003, USA",http://www.goethe.de/newyork?utm_source=google&utm_medium=gmb&utm_campaign=newyork&utm_content=website,Rating: 4.6,8522,Culture,"art gallery, cultural center, library",price level very cheap,Gramercy
106,40.7277567,-73.9867989,KINKA,"63 E 7th St Store East, New York, NY 10003, USA",http://www.kinka.nyc/,Rating: 4.8,10070,Culture,"art gallery, gift shop, grocery store, wholesaler, food store, general contractor, farm, food, store",price level very cheap,East Village
107,40.7290742,-73.98584369999999,Archies Press,"220 E 10th St, New York, NY 10003, USA",http://www.archiespress.com/,Rating: 5,18188,Culture,"art gallery, store",price level very cheap,East Village
108,40.7289216,-73.9782711,ReVision Lounge and Gallery,"219 Avenue B, New York, NY 10009, USA",http://www.revisionlounge.com/,Rating: 4.1,13446,"Night Club, Bar","bar, comedy club, art gallery, night club, event venue, sports club",price level cheap,Alphabet City
109,40.7287361,-73.9809525,Nguyen Wahed,"504 E 12th St, New York, NY 10009, USA",https://nguyenwahed.com/,Rating: 5,13563,Culture,art gallery,price level very cheap,East Village
110,40.729692,-73.9810732,Rabbit Rabbit,"209 Avenue A, New York, NY 10009, USA",No URL,No rating,19912,Culture,art gallery,price level very cheap,East Village
111,40.7355708,-73.9789225,Majestic Tattoo NYC Adal Ray Arts,"360 1st Ave, New York, NY 10010, USA",http://www.majestictattoonyc.com/,Rating: 4.6,10336,Culture,"art gallery, body art service, art studio, store",price level very cheap,Stuy Town/Peter Cooper Village
112,40.7301625,-73.9579347,Subtitled NYC,"113 Franklin St, Brooklyn, NY 11222, USA",https://subtitlednyc.com/,Rating: 5,8644,Culture,art gallery,price level very cheap,Greenpoint
113,40.734079,-73.9575866,Clown Show Prison Books and Fine Objects,"100 Freeman St, Brooklyn, NY 11222, USA",No URL,Rating: 5,17245,Culture,"book store, art gallery, store",price level very cheap,Greenpoint
114,40.7335909,-73.95562029999999,Faurschou New York,"148 Green St, Brooklyn, NY 11222, USA",http://www.faurschou.com/,Rating: 4.8,6539,Culture,museum,price level very cheap,Greenpoint
115,40.7304405,-73.9490763,Brooklyn Art Studios,"276 Greenpoint Ave, Brooklyn, NY 11222, USA",http://brooklynartstudiosnyc.blogspot.com/,Rating: 4.2,10536,Culture,art gallery,price level very cheap,Greenpoint
116,40.729889199999995,-73.9550325,Instytut Pilsudskiego,"138 Greenpoint Ave, Brooklyn, NY 11222, USA",http://www.pilsudski.org/,Rating: 4.9,2111,Culture,"museum, tourist attraction",price level very cheap,Greenpoint
117,40.730262,-73.94893200000001,SENTIENT Furniture  Design Gallery,"276 Greenpoint Ave Building 9 floor 5, Brooklyn, NY 11222, USA",https://sentientfurniture.com/,Rating: 5,19643,Culture,"furniture store, art gallery, home improvement store, home goods store, general contractor, store",price level very cheap,Greenpoint
118,40.7318013,-73.9500055,THE JAVA PROJECT,"252 Java St #100, Brooklyn, NY 11222, USA",http://thejavaproj.com/,Rating: 5,10712,Culture,art gallery,price level very cheap,Greenpoint
119,40.729604599999995,-73.9491315,Acme Crates,"273 Calyer St, Brooklyn, NY 11222, USA",No URL,No rating,16534,Culture,art gallery,price level very cheap,Greenpoint
120,40.7319708,-73.9498002,sentient light,"360 Station, 260 Java St, Brooklyn, NY 11222, USA",http://www.sentientlight.org/,No rating,18950,Culture,"art gallery, store",price level very cheap,Greenpoint
121,40.738096299999995,-73.99374569999999,Center for Jewish History,"15 W 16th St, New York, NY 10011, USA",https://www.cjh.org/visit/plan-your-visit,Rating: 4.6,3166,Culture,museum,price level very cheap,Union Sq
122,40.7376635,-73.98675340000001,The National Arts Club,"15 Gramercy Pk S, New York, NY 10003, USA",http://www.nacnyc.org/,Rating: 4.7,18405,Culture,"art gallery, historical landmark, historical place",price level very cheap,Gramercy
123,40.7385931,-73.9890127,Theodore Roosevelt Birthplace National Historic Site,"28 E 20th St, New York, NY 10003, USA",http://www.nps.gov/thrb,Rating: 4.6,2460,Culture,"historical landmark, tourist attraction, historical place, museum",price level very cheap,Union Sq
124,40.7403982,-73.9921624,THE GALLERY by odo,"17 W 20th St, New York, NY 10011, USA",https://www.odogallery.nyc/,Rating: 4.3,13224,Culture,"japanese restaurant, art gallery, sushi restaurant, restaurant, food",price level moderate,Union Sq
125,40.737088799999995,-73.9946875,Tibet House,"22 W 15th St, New York, NY 10011, USA",https://thus.org/,Rating: 4.8,2429,Culture,"art gallery, tourist attraction, cultural center, library, book store, museum, store",price level very cheap,Union Sq
126,40.7389252,-73.9850039,Mishkin Gallery,"135 E 22nd St, New York, NY 10010, USA",http://mishkingallery.baruch.cuny.edu/,Rating: 4.6,5246,Culture,"art gallery, museum",price level very cheap,Gramercy
127,40.7410272,-73.98507769999999,Swann Auction Galleries,"104 E 25th St Fl 6, New York, NY 10010, USA",http://www.swanngalleries.com/,Rating: 4.1,17231,Culture,"art gallery, book store, home goods store, store",price level very cheap,Gramercy
128,40.7406588,-73.9848854,Solas Studio,"117 E 24th St 2nd floor, New York, NY 10010, USA",http://www.solas.studio/,Rating: 4.8,2390,Culture,"art gallery, store",price level very cheap,Gramercy
129,40.7363202,-73.9852131,Decor Gallery and Framing,"222 3rd Ave, New York, NY 10003, USA",http://www.decorartgalleryny.com/,Rating: 3.8,6888,Culture,"art gallery, store",price level very cheap,Gramercy
130,40.7354451,-73.9740147,Art Boat,"2430 FDR Dr Service Rd East, Brooklyn, NY 11222, USA",http://www.artboatnyc.com/,Rating: 2.1,899,Culture,art gallery,price level very cheap,Kips Bay
131,40.7363432,-73.9522669,The Greenpoint Gallery,"390 McGuinness Blvd, Brooklyn, NY 11222, USA",https://www.thegreenpointgallery.com/,Rating: 4.4,5029,Culture,art gallery,price level very cheap,Greenpoint
132,40.7420489,-73.9549016,550 Gallery,"5-50 51st Ave, Long Island City, NY 11101, USA",https://www.5-50gallery.com/,Rating: 4.2,17514,Culture,art gallery,price level very cheap,Long Island City/Hunters Point
133,40.7386825,-73.95557869999999,Kayrock Screen Printing,"1205 Manhattan Ave, Brooklyn, NY 11222, USA",http://www.kayrock.org/,Rating: 4.3,8655,Culture,"art gallery, store",price level very cheap,Greenpoint
134,40.73431420000001,-73.95855689999999,episode,"213 Franklin St, Brooklyn, NY 11222, USA",https://episodegallery.com/,No rating,5417,Culture,art gallery,price level very cheap,Greenpoint
135,40.7407432,-73.9496212,Slic Studios,"21-07 Borden Ave 5th floor, Long Island City, NY 11101, USA",No URL,Rating: 4.6,8232,Culture,"art gallery, event venue",price level very cheap,Long Island City/Hunters Point
136,40.7409159,-73.9500942,Lydian Stater,"51-02 21st St Suite 4A, Long Island City, NY 11101, USA",http://www.lydianstater.co/,Rating: 5,928,Culture,art gallery,price level very cheap,Long Island City/Hunters Point
137,40.7407032,-73.9499973,Paul Stamati Gallery,"51-2 21st St, Long Island City, NY 11101, USA",http://stamati.com/,Rating: 5,3758,Culture,"art gallery, furniture store, home improvement store, home goods store, store",price level very cheap,Long Island City/Hunters Point
138,40.7484405,-73.98566439999999,Empire State Building,"20 W 34th St., New York, NY 10001, USA",https://www.esbnyc.com/,Rating: 4.7,979,Culture,"historical landmark, observation deck, historical place, tourist attraction, museum",price level very cheap,Midtown South
139,40.7440291,-73.9872529,Museum of Sex,"233 5th Ave, New York, NY 10016, USA",https://www.museumofsex.com/?y_source=1_MTA4NDAxMzM2Ny03MTUtbG9jYXRpb24ud2Vic2l0ZQ%3D%3D,Rating: 4.4,1304,"Culture, Bar","museum, tourist attraction, gift shop, event venue, bar, store",price level moderate,Union Sq
140,40.7436338,-73.9878621,National Museum of Mathematics,"225 5th Ave, New York, NY 10010, USA",https://momath.org/,Rating: 4.1,18148,Culture,"tourist attraction, museum",price level very cheap,Union Sq
141,40.744573599999995,-73.98863109999999,The Jazz Gallery,"1158 Broadway 5th floor, New York, NY 10001, USA",http://www.jazzgallery.org/,Rating: 4.7,19112,Culture,"art gallery, event venue",price level very cheap,Union Sq
142,40.7459949,-73.9839746,Blender Space,"135 Madison Ave Floor 8, New York, NY 10016, USA",https://blenderworkspace.com/,Rating: 4.6,5229,Culture,"event venue, art gallery, cafe, food",price level very cheap,Midtown South
143,40.7442515,-73.9795675,Decor Art Gallery Inc,"456 3rd Ave, New York, NY 10016, USA",http://decorartgallerynyc.com/,Rating: 5,16616,Culture,"art gallery, store",price level very cheap,Murray Hill
144,40.744684,-73.97206349999999,Highland Park Modern,"626 1st Ave, New York, NY 10016, USA",https://www.1stdibs.com/dealers/highland-park-modern,No rating,19056,Culture,"sculpture, art gallery, furniture store, home improvement store, home goods store, store",price level very cheap,UN/Turtle Bay South
145,40.7455186,-73.9805724,Donzella,"200 Lexington Ave, New York, NY 10016, USA",http://www.donzella.com/,Rating: 5,5283,Culture,"furniture store, art gallery, home improvement store, home goods store, store",price level very cheap,Murray Hill
146,40.748176,-73.9793569,Labouret Private Gallery llc,"115 E 36th St 2nd Floor, New York, NY 10016, USA",http://www.labouretprivategallery.com/,Rating: 5,6705,Culture,art gallery,price level very cheap,Murray Hill
147,40.7420133,-73.9782032,E Mayan Studio Inc,"529 2nd Ave, New York, NY 10016, USA",http://www.earlmayan99.com/contact,Rating: 4.1,14156,Culture,"art gallery, store",price level very cheap,Kips Bay
148,40.7436387,-73.9728064,Art Cache Fine Art Gallery,"401 E 34th St, New York, NY 10016, USA",http://www.art-cache.com/,Rating: 3.5,6594,Culture,art gallery,price level very cheap,UN/Turtle Bay South
149,40.7456014,-73.947097,MoMA PS1,"22-25 Jackson Ave, Queens, NY 11101, USA",https://www.momaps1.org/,Rating: 4.4,4558,Culture,"tourist attraction, museum",price level very cheap,Long Island City/Hunters Point
150,40.746846999999995,-73.953761,Remix Market NYC,"5-38 46th Ave, Long Island City, NY 11101, USA",http://www.remixmarketnyc.com/,Rating: 4.8,18320,Culture,"art gallery, discount store, electronics store, clothing store, wholesaler, furniture store, home improvement store, home goods store, store",price level very cheap,Long Island City/Hunters Point
151,40.7469822,-73.9542659,Krypton Neon,"5-26 46th Ave, Long Island City, NY 11101, USA",http://www.neonshop.com/,Rating: 5,12286,Culture,"art gallery, store",price level very cheap,Long Island City/Hunters Point
152,40.7454648,-73.95179259999999,Irena Hochman Fine Art Ltd,"10-37 47th Ave, Long Island City, NY 11101, USA",http://www.irenahochman.com/,No rating,4367,Culture,art gallery,price level very cheap,Long Island City/Hunters Point
153,40.7469298,-73.9408275,SculptureCenter,"44-19 Purves St, Long Island City, NY 11101, USA",http://sculpture-center.org/,Rating: 4.3,8715,Culture,"tourist attraction, art gallery, museum",price level very cheap,Long Island City/Hunters Point
154,40.7455074,-73.9460772,Museum of Urban Arts  MOUA,"22-44 Jackson Ave, Long Island City, NY 11101, USA",http://moua.org/,Rating: 5,19487,Culture,museum,price level very cheap,Long Island City/Hunters Point
155,40.7487478,-73.9947633,CLAMP,"247 W 29th St, New York, NY 10001, USA",http://clampart.com/,Rating: 4.5,17395,Culture,art gallery,price level very cheap,Penn Station/Madison Sq West
156,40.7482826,-73.9885583,June 4th Memorial Museum,"894 6th Ave 4th Fl, New York, NY 10001, USA",https://jinian64.org/,Rating: 5,19456,Culture,museum,price level very cheap,Midtown South
157,40.7488234,-73.9937487,Monya Rowe Gallery,"224 W 30th St #304, New York, NY 10001, USA",http://www.monyarowegallery.com/,Rating: 4.5,8773,Culture,art gallery,price level very cheap,Penn Station/Madison Sq West
158,40.7512559,-73.9886245,Hip Hop Hall of Fame  Museum,"131 W 35th St 8th Floor Suite M307, New York, NY 10001, USA",http://hiphophof.org/,Rating: 2.9,12732,Culture,"museum, tourist attraction",price level very cheap,Garment District
159,40.7527746,-73.9787253,SUMMIT One Vanderbilt,"45 E 42nd St, New York, NY 10017, USA",https://summitov.com/,Rating: 4.6,735,Culture,"tourist attraction, museum",price level very cheap,Midtown Center
160,40.7492258,-73.9813971,The Morgan Library  Museum,"225 Madison Ave, New York, NY 10016, USA",https://www.themorgan.org/,Rating: 4.7,1479,Culture,"museum, library, tourist attraction",price level moderate,Murray Hill
161,40.749454,-73.980048,Scandinavia House,"58 Park Ave, New York, NY 10016, USA",http://www.scandinaviahouse.org/,Rating: 4.5,5237,Culture,"museum, art gallery, concert hall, auditorium, movie theater, cultural center, tourist attraction, event venue, restaurant, food",price level very cheap,Murray Hill
162,40.7507471,-73.9778707,AKC Museum of the Dog,"101 Park Ave, New York, NY 10178, USA",https://museumofthedog.org/,Rating: 4.4,17928,Culture,museum,price level very cheap,Murray Hill
163,40.75251000000001,-73.968287,Japan Society,"333 E 47th St, New York, NY 10017, USA",https://japansociety.org/,Rating: 4.6,12507,Culture,"cultural center, tourist attraction, museum, school, event venue",price level very cheap,UN/Turtle Bay South
164,40.7531532,-73.97797589999999,New York Transit Museum Gift Shop,"89 E 42nd St, New York, NY 10001, USA",http://www.nytransitmuseum.org/,Rating: 4.3,19836,Culture,"gift shop, tourist attraction, art gallery, museum, store",price level moderate,Midtown Center
165,40.7527789,-73.9715633,Blue Gallery,"222 E 46th St, New York, NY 10017, USA",http://www.bluegallerynyc.com/,Rating: 4.6,7899,Culture,art gallery,price level very cheap,UN/Turtle Bay South
166,40.7539373,-73.9695243,Galleria On Third,"907 2nd Ave (Bet, 48th E 49th St, New York, NY 10017, USA",http://galleriaonthird.com/,Rating: 4.9,398,Culture,"art gallery, museum, store",price level very cheap,UN/Turtle Bay South
167,40.7541273,-73.9670895,BIG Elephants,"5th Ave, New York, NY 10001, USA",http://bigelephantsnft.com/,No rating,1832,Culture,art gallery,price level very cheap,Sutton Place/Turtle Bay North
168,40.7529103,-73.97040439999999,Barbara Cushing Artworks,"240 E 47th St APT 22F, New York, NY 10017, USA",http://barbaracushing-artworks.com/,No rating,12834,Culture,art gallery,price level very cheap,UN/Turtle Bay South
169,40.7504214,-73.94827409999999,TLG New York,"43-42 12th St, Long Island City, NY 11101, USA",https://tlg-nyc.com/,Rating: 5,13104,Culture,art gallery,price level very cheap,Long Island City/Hunters Point
170,40.7503366,-73.9502732,Lawton Mull Inc,"10-03 44th Ave, Long Island City, NY 11101, USA",http://lawtonmull.com/,Rating: 5,510,Culture,"furniture store, art gallery, home improvement store, general contractor, home goods store, store",price level very cheap,Long Island City/Hunters Point
171,40.7514355,-73.94975579999999,Studio In Factory,"43-36 10th St #5, Long Island City, NY 11101, USA",No URL,Rating: 5,4583,Culture,art gallery,price level very cheap,Long Island City/Hunters Point
172,40.7500392,-73.9503582,DigiAna Studio,"10-10 44th Ave #409, Long Island City, NY 11101, USA",No URL,No rating,2176,Culture,"art studio, art gallery",price level very cheap,Long Island City/Hunters Point
173,40.75028,-73.94541699999999,Loch Gallery at FryeWorks,"21-10 43rd Ave #106, Long Island City, NY 11101, USA",https://www.instagram.com/lgfryeworks,No rating,2906,Culture,art gallery,price level very cheap,Long Island City/Hunters Point
174,40.7564269,-73.9888338,Madame Tussauds New York,"234 W 42nd St, New York, NY 10036, USA",https://www.madametussauds.com/new-york/tickets/?utm_source=local-listing&utm_medium=organic&utm_campaign=tickets,Rating: 4.5,7689,Culture,"tourist attraction, museum",price level expensive,Garment District
175,40.7576207,-73.98517609999999,RiseNY,"160 W 45th St, New York, NY 10036, USA",https://riseny.co/,Rating: 4.5,3927,Culture,"tourist attraction, museum",price level very cheap,Times Sq/Theatre District
176,40.7576446,-73.9843382,Museum of Broadway,"145 W 45th St, New York, NY 10036, USA",http://www.themuseumofbroadway.com/,Rating: 4.7,1561,Culture,"museum, gift shop, performing arts theater, store, event venue",price level very cheap,Times Sq/Theatre District
177,40.7579591,-73.9855616,SABINE REINDEL,"211 57th Street (Between 7th and, Broadway, New York, NY 10036, USA",http://sabinereindel.com/,Rating: 4.5,5106,Culture,art gallery,price level very cheap,Times Sq/Theatre District
178,40.7564042,-73.9840198,HS Art and Framing,"112 W 44th St, New York, NY 10036, USA",http://www.hsart.com/,Rating: 5,9832,Culture,"art gallery, store",price level very cheap,Times Sq/Theatre District
179,40.7614327,-73.97762159999999,The Museum of Modern Art,"11 W 53rd St, New York, NY 10019, USA",https://www.moma.org/,Rating: 4.6,3883,Culture,"art gallery, tourist attraction, museum",price level very cheap,Midtown Center
180,40.75857500000001,-73.980023,Christies New York,"20 Rockefeller Plaza, New York, NY 10020, USA",http://www.christies.com/,Rating: 4.6,11316,Culture,art gallery,price level very cheap,Midtown Center
181,40.7605642,-73.9775578,The Paley Center For Media NYC,"25 W 52nd St, New York, NY 10019, USA",http://www.paleycenter.org/,Rating: 4.4,6858,Culture,"museum, tourist attraction",price level very cheap,Midtown Center
182,40.7579207,-73.9774236,HERO,"610 5th Avenue Rink Level, New York, NY 10020, USA",https://hero-nyc.com/,Rating: 4,13585,Culture,"event venue, concert hall, auditorium, art gallery",price level very cheap,Midtown Center
183,40.761277799999995,-73.9713865,PHILLIPS,"432 Park Ave, New York, NY 10022, USA",http://www.phillips.com/,Rating: 4.6,15595,Culture,art gallery,price level very cheap,Midtown North
184,40.755911100000006,-73.9665972,The Norwegian Seamens Church in New York,"317 E 52nd St, New York, NY 10022, USA",https://www.sjomannskirken.no/new-york/,Rating: 4.8,19821,Culture,"church, art gallery, cultural center, place of worship",price level very cheap,Sutton Place/Turtle Bay North
185,40.7580824,-73.96550839999999,Manhattan Art  Antiques Center,"1050 2nd Ave, New York, NY 10022, USA",https://www.the-maac.com/,Rating: 4.4,9173,Culture,"art gallery, home goods store, store",price level very cheap,Sutton Place/Turtle Bay North
186,40.7598665,-73.9737557,Arton Contemporary,"521 Madison Ave, New York, NY 10022, USA",http://artoncontemporary.com/,Rating: 4,19976,Culture,art gallery,price level very cheap,Midtown Center
187,40.7609619,-73.9684491,Throckmorton Fine Art LLC,"145 E 57th St, New York, NY 10022, USA",https://throckmorton-nyc.com/,Rating: 4.8,7953,Culture,art gallery,price level very cheap,Midtown East
188,40.7605388,-73.959733,Mount Vernon Hotel Museum  Garden,"421 E 61st St, New York, NY 10065, USA",http://www.mvhm.org/,Rating: 4.5,6440,Culture,"museum, tourist attraction",price level very cheap,Lenox Hill East
189,40.7598069,-73.965722,Room57Gallery,"235 E 57th St, New York, NY 10022, USA",https://www.room57gallery.com/,Rating: 5,10922,Culture,art gallery,price level very cheap,Sutton Place/Turtle Bay North
190,40.7596621,-73.96554239999999,The OJ Gallery,"249 E 57th St, New York, NY 10022, USA",http://www.ojgallery.com/,Rating: 5,17222,Culture,"art gallery, store",price level very cheap,Sutton Place/Turtle Bay North
191,40.761357499999995,-73.950475,Roosevelt Island Visual Arts Association RIVAA,"527 Main St, New York, NY 10044, USA",http://www.rivaagallery.org/,Rating: 4.7,6350,Culture,art gallery,price level very cheap,Roosevelt Island
192,40.754356,-73.9408157,AlterWork Studios,"40-20 22nd St, Long Island City, NY 11101, USA",http://www.alterworkstudios.com/,Rating: 4.9,6762,Culture,"art studio, art gallery",price level very cheap,Long Island City/Queens Plaza
193,40.7575575,-73.9426733,Four Daughters LLC,"38-36 11th St, Long Island City, NY 11101, USA",http://4daughters.net/,Rating: 1,19103,Culture,"art gallery, general contractor",price level very cheap,Queensbridge/Ravenswood
194,40.7584144,-73.9423449,Architectural Molded Composite,"1006 38th Ave, Long Island City, NY 11101, USA",No URL,Rating: 5,275,Culture,museum,price level very cheap,Queensbridge/Ravenswood
195,40.7622557,-73.9896433,Fountain House Gallery,"702 9th Ave, New York, NY 10019, USA",http://www.fountainhousegallery.org/,Rating: 4.5,7597,Culture,art gallery,price level very cheap,Clinton East
196,40.7669429,-73.9929777,Gallery MC,"549 W 52nd St, New York, NY 10019, USA",http://www.gallerymc.org/,Rating: 4.8,74,Culture,art gallery,price level very cheap,Clinton West
197,40.7623681,-73.99316519999999,Jadite Gallery,"660 & 662, 660 10th Ave, New York, NY 10036, USA",http://jadite.com/,Rating: 4.6,5663,Culture,art gallery,price level very cheap,Clinton East
198,40.7643725,-73.98663,Jennys,"333 W 52nd St Suite 1203, New York, NY 10019, USA",https://jennys.us/,No rating,12637,Culture,art gallery,price level very cheap,Clinton East
199,40.7646696,-73.9875338,Altowa Image,"371 W 52nd St, New York, NY 10019, USA",http://altowaimage.com/,Rating: 5,7330,Culture,art gallery,price level very cheap,Clinton East
200,40.7652697,-73.9837269,SPYSCAPE,"928 8th Ave, New York, NY 10019, USA",https://spyscape.com/?utm_source=google&utm_medium=organic&utm_campaign=GMB+Site,Rating: 4.5,10110,Culture,"museum, tourist attraction, book store, event venue, store",price level very cheap,Midtown North
201,40.767375,-73.98194720000001,Museum of Arts and Design,"2 Columbus Cir, New York, NY 10019, USA",https://madmuseum.org/,Rating: 4.2,514,Culture,"tourist attraction, gift shop, museum, store",price level expensive,Midtown North
202,40.7661038,-73.9806712,The Art Students League of New York,"215 W 57th St Suite 1, New York, NY 10019, USA",http://www.theartstudentsleague.org/,Rating: 4.8,18982,Culture,art gallery,price level very cheap,Midtown North
203,40.7674788,-73.9814456,Columbus Circle Wine  Spirits,"1802 Broadway, New York, NY 10019, USA",http://circle.wine/,Rating: 4.6,19297,Culture,"liquor store, museum, food, store",price level moderate,Midtown North
204,40.763124999999995,-73.97365429999999,Louis Vuitton 200 Trunks 200 Visionaries The Exhibition In New York,"660 Madison Ave, New York, NY 10065, USA",https://us.louisvuitton.com/eng-us/point-of-sale/usa/louis-vuitton-lv200-exhibition,Rating: 4.8,9421,Culture,art gallery,price level very cheap,Midtown North
205,40.763826,-73.9703237,LAlliance New York,"22 E 60th St #1077, New York, NY 10022, USA",https://lallianceny.org/,Rating: 4.2,7910,Culture,"cultural center, art gallery, library, performing arts theater, event venue, school",price level very cheap,Upper East Side South
206,40.7624795,-73.969201,Argosy Book Store,"116 E 59th St, New York, NY 10022, USA",http://www.argosybooks.com/,Rating: 4.7,9619,Culture,"book store, art gallery, home goods store, store",price level very cheap,Midtown East
207,40.7648331,-73.96683349999999,Society of Illustrators,"128 E 63rd St, New York, NY 10065, USA",http://www.societyillustrators.org/,Rating: 4.7,111,Culture,"museum, tourist attraction",price level very cheap,Upper East Side South
208,40.765386,-73.966561,Gladstone 64,"130 E 64th St, New York, NY 10065, USA",http://www.gladstone64.com/,Rating: 4.1,604,Culture,art gallery,price level very cheap,Upper East Side South
209,40.761923,-73.970064,Forum Gallery,"475 Park Ave, New York, NY 10022, USA",http://www.forumgallery.com/,Rating: 4.7,19811,Culture,art gallery,price level very cheap,Midtown East
210,40.7663239,-73.9562632,NYC Barber Shop Museum,"405 E 70th St, New York, NY 10021, USA",https://nycbarbershopmuseum.com/,Rating: 4.8,6949,Culture,"barber shop, hair salon, hair care, museum, health",price level very cheap,Lenox Hill East
211,40.7626082,-73.960087,El Consulado de la Repblica de Pachanga,"1161 1st Ave, New York, NY 10065, USA",https://pachanga.nyc/,Rating: 5,18872,Culture,art gallery,price level very cheap,Lenox Hill West
212,40.7634767,-73.9611103,Nicolo Melissa Antiques,"317 E 64th St, New York, NY 10065, USA",http://www.nicolomelissaantiques.com/,Rating: 5,5884,Culture,"sculpture, art gallery, home goods store, store",price level very cheap,Lenox Hill West
213,40.765308399999995,-73.96135459999999,Disha Dua Art,"265 E 66th St, New York, NY 10065, USA",http://www.dishadua.com/,No rating,512,Culture,art gallery,price level very cheap,Lenox Hill West
214,40.7662029,-73.9526946,Schillay Fine Art,"520 E 72nd St Apt 2c, New York, NY 10021, USA",http://www.schillay.com/,Rating: 5,2797,Culture,art gallery,price level very cheap,Lenox Hill East
215,40.7717961,-73.9894089,MMAC theater,"248 W 60th St, New York, NY 10019, USA",No URL,Rating: 4,11243,Culture,museum,price level very cheap,Lincoln Square West
216,40.771377,-73.9903652,Anya and Andrew Shiva Gallery,"11th Ave, New York, NY 10019, USA",https://shivagallery.org/,Rating: 4.8,1613,Culture,museum,price level very cheap,Lincoln Square West
217,40.7685526,-73.9831866,LIK Fine Art,"10 Columbus Cir, New York, NY 10019, USA",https://lik.com/,Rating: 4.3,9208,Culture,"art gallery, home goods store, store",price level very cheap,Lincoln Square East
218,40.7732389,-73.9814889,American Folk Art Museum,"2 Lincoln Square, New York, NY 10023, USA",http://www.folkartmuseum.org/,Rating: 4.4,14301,Culture,"tourist attraction, museum",price level very cheap,Lincoln Square East
219,40.7657348,-73.97687189999999,Art Central El Dorado Galleria,"108 Central Park S, New York, NY 10019, USA",http://artcentralny.com/,Rating: 4.6,15423,Culture,art gallery,price level very cheap,Midtown North
220,40.7710857,-73.9673861,The Frick Collection,"1 E 70th St, New York, NY 10021, USA",https://www.frick.org/,Rating: 4.6,5931,Culture,museum,price level moderate,Upper East Side South
221,40.77235220000001,-73.9715901,The Mall and Literary Walk,"The Mall, New York, NY 10022, USA",https://www.centralparknyc.org/locations/the-mall-literary-walk,Rating: 4.8,4657,Culture,"tourist attraction, historical landmark, historical place, museum",price level very cheap,Central Park
222,40.7699738,-73.96440199999999,Asia Society and Museum,"725 Park Ave, New York, NY 10021, USA",http://asiasociety.org/new-york,Rating: 4.5,7587,Culture,"museum, tourist attraction",price level expensive,Upper East Side South
223,40.767004,-73.96939689999999,Lvy Gorvy Dayan,"19 E 64th St, New York, NY 10065, USA",http://www.levygorvydayan.com/,Rating: 4.5,8167,Culture,art gallery,price level very cheap,Upper East Side South
224,40.769442,-73.96650199999999,David Zwirner,"34 E 69th St, New York, NY 10021, USA",https://www.davidzwirner.com/,Rating: 4.5,14209,Culture,art gallery,price level very cheap,Upper East Side South
225,40.7729956,-73.9619585,Gagosian,"821 Park Ave, New York, NY 10021, USA",https://gagosian.com/exhibitions/,Rating: 4.5,17734,Culture,art gallery,price level very cheap,Upper East Side South
226,40.7719268,-73.96506289999999,Kate Oh Gallery LLC,"31 E 72nd St, New York, NY 10021, USA",http://www.kateohgallery.com/,Rating: 5,4244,Culture,art gallery,price level very cheap,Upper East Side South
227,40.7721392,-73.95917829999999,NYC FRAMES,"1322 3rd Ave, New York, NY 10021, USA",http://nycframeshop.com/,Rating: 4.6,1898,Culture,"art gallery, store",price level very cheap,Upper East Side South
228,40.770497899999995,-73.95380209999999,New York Fine Art Gallery,"1464 1st Ave.(Bet 76th & 77th St, New York, NY 10075, USA",No URL,Rating: 4.9,10004,Culture,art gallery,price level very cheap,Lenox Hill East
229,40.7675345,-73.9549629,BELOOSESKY GALLERY,"415 E 72nd St, New York, NY 10021, USA",http://www.beloosesky.com/,Rating: 4.9,5411,Culture,art gallery,price level very cheap,Lenox Hill East
230,40.7687774,-73.95093469999999,Russian American Cultural Center RACC,"520 E 76th St Apt 7e, New York, NY 10021, USA",http://www.russianamericanculture.com/,No rating,16552,Culture,"art gallery, book store, jewelry store, event venue, store",price level very cheap,Lenox Hill East
231,40.7728687,-73.9535559,Lands Beyond Ltd,"325 E 79th St PHB, New York, NY 10075, USA",http://www.thelandsbeyondprecolumbian.com/,No rating,9289,Culture,"art gallery, home goods store, store",price level very cheap,Yorkville West
232,40.7691411,-73.9429712,Original Art By Gilda,"1234 Main St, New York, NY 10044, USA",No URL,No rating,5170,Culture,art gallery,price level very cheap,Roosevelt Island
233,40.77230900000001,-73.99119999999999,Wellington Fine Art,"100 Freedom Pl S, New York, NY 10069, USA",https://wellingtonfineart.com/,Rating: 5,17744,Culture,art gallery,price level very cheap,Lincoln Square West
234,40.7722117,-73.9909997,Galerie PICI,"100 Freedom Pl S, New York, NY 10069, USA",http://www.galeriepici.com/,No rating,18171,Culture,art gallery,price level very cheap,Lincoln Square West
235,40.776012699999995,-73.98508939999999,Corporate Art Planning,"160 W End Ave Suite 12 G, New York, NY 10023, USA",No URL,No rating,919,Culture,art gallery,price level very cheap,Lincoln Square West
236,40.779326,-73.986048,Silverman Studios Inc,"324 W 71st St, New York, NY 10023, USA",http://www.burtonsilverman.com/,Rating: 5,14917,Culture,art gallery,price level very cheap,Lincoln Square West
237,40.778242299999995,-73.9779295,Central Art Gallery,"281B Columbus Ave, New York, NY 10023, USA",No URL,Rating: 4.1,2355,Culture,art gallery,price level very cheap,Lincoln Square East
238,40.776798199999995,-73.980053,114 W 71 Arts,"114 W 71st St, New York, NY 10023, USA",https://114w71arts.com/,Rating: 5,12058,Culture,art gallery,price level very cheap,Lincoln Square East
239,40.7751356,-73.9802496,Wade Maxx Art Gallery  Framing,"191 Columbus Ave, New York, NY 10023, USA",http://www.wademaxx.com/,Rating: 4.4,4567,Culture,"art gallery, store",price level very cheap,Lincoln Square East
240,40.777363699999995,-73.98303349999999,Gracie Mansion Fine Art,"200 W 70th St # 15k, New York, NY 10023, USA",http://www.artnet.com/galleries/gracie-mansion-gallery/,No rating,18501,Culture,art gallery,price level very cheap,Lincoln Square West
241,40.77934870000001,-73.9739079,The New York Historical,"170 Central Prk W, New York, NY 10024, USA",https://www.nyhistory.org/,Rating: 4.5,11267,Culture,"museum, tourist attraction, library",price level very cheap,Upper West Side South
242,40.7744751,-73.9782968,Gallery Nina,"18 W 69th St, New York, NY 10023, USA",No URL,No rating,16185,Culture,art gallery,price level very cheap,Lincoln Square East
243,40.7776725,-73.9767658,Il Chiostro Inc,"23 W 73rd St # 306, New York, NY 10023, USA",http://ilchiostro.com/,Rating: 5,17364,Culture,art gallery,price level very cheap,Lincoln Square East
244,40.7794366,-73.963244,The Metropolitan Museum of Art,"1000 5th Ave, New York, NY 10028, USA",https://www.metmuseum.org/,Rating: 4.8,10529,Culture,"tourist attraction, museum",price level very cheap,Central Park
245,40.7747652,-73.9635069,Gagosian,"980 Madison Ave, New York, NY 10075, USA",https://gagosian.com/locations/980-madison-avenue/,Rating: 4.5,14971,Culture,art gallery,price level very cheap,Upper East Side South
246,40.7786175,-73.9630622,81st Street Studio,"1000 5th Ave Ground Floor, New York, NY 10028, USA",https://www.metmuseum.org/events/programs/families/81st-street-studio,Rating: 4.6,17720,Culture,museum,price level very cheap,Central Park
247,40.7748041,-73.9635052,Nahmad Contemporary,"980 Madison Ave Third Floor, New York, NY 10075, USA",http://www.nahmadcontemporary.com/,Rating: 4.8,17502,Culture,art gallery,price level very cheap,Upper East Side South
248,40.7767017,-73.9635577,Ukrainian Institute of America,"2 E 79th St, New York, NY 10075, USA",http://www.ukrainianinstitute.org/,Rating: 4.8,16713,Culture,"concert hall, auditorium, tourist attraction, museum, event venue",price level very cheap,Upper East Side North
249,40.779731,-73.95993899999999,Memor Museum,"1130 Madison Ave, New York, NY 10028, USA",https://www.memormuseum.com/,Rating: 4.2,6659,Culture,museum,price level very cheap,Upper East Side North
250,40.776222,-73.962527,Skarstedt Gallery,"20 E 79th St, New York, NY 10075, USA",http://www.skarstedt.com/,Rating: 4.7,2876,Culture,art gallery,price level very cheap,Upper East Side North
251,40.776238,-73.962656,Acquavella,"18 E 79th St, New York, NY 10075, USA",http://www.acquavellagalleries.com/,Rating: 4.7,4709,Culture,"art gallery, tourist attraction, museum",price level very cheap,Upper East Side North
252,40.7766735,-73.9606094,Fu Qiumeng Fine Art,"65 E 80th St Ground Floor, New York, NY 10075, USA",http://fuqiumeng.com/,Rating: 5,17287,Culture,art gallery,price level very cheap,Upper East Side North
253,40.7770008,-73.9621343,Sprth Magers Gallery New York,"22 E 80th St 2nd Floor, New York, NY 10075, USA",http://spruethmagers.com/,Rating: 5,5348,Culture,art gallery,price level very cheap,Upper East Side North
254,40.7776775,-73.9484502,Spellman Gallery,"1672 1st Ave, New York, NY 10128, USA",https://www.spellmangallery.com/,Rating: 5,12332,Culture,"art gallery, furniture store, home improvement store, finance, home goods store, store",price level very cheap,Yorkville East
255,40.774648899999995,-73.9507902,Morning Calm Gallery  Framing,"1588 1st Ave #1, New York, NY 10028, USA",http://www.morningcalmgallery.com/,Rating: 5,8323,Culture,"art gallery, store",price level very cheap,Yorkville East
256,40.7765202,-73.9530588,Art and Framing Gallery II,"1615 2nd Ave, New York, NY 10028, USA",No URL,Rating: 4.3,5306,Culture,"art gallery, store",price level very cheap,Yorkville West
257,40.7746105,-73.9534523,Art For Eternity,"303 E 81st St, New York, NY 10028, USA",http://www.howardnowes.com/,Rating: 5,15093,Culture,art gallery,price level very cheap,Yorkville West
258,40.7743766,-73.9529045,Grooming Alchemist House of Barbers,"331 E 81st St, New York, NY 10028, USA",No URL,Rating: 4.3,16243,Culture,"barber shop, art gallery, hair salon, hair care, clothing store, home goods store, health, store",price level very cheap,Yorkville West
259,40.7849788,-73.9810919,laura solomon fine art,"411 W End Ave, New York, NY 10024, USA",http://www.laurasolomonfineart.com/,No rating,19135,Culture,art gallery,price level very cheap,Upper West Side South
260,40.7813241,-73.9739882,American Museum of Natural History,"200 Central Prk W, New York, NY 10024, USA",https://www.amnh.org/,Rating: 4.5,7306,Culture,"tourist attraction, planetarium, historical landmark, historical place, museum",price level very cheap,Upper West Side South
261,40.785877,-73.977283,Childrens Museum Of Manhattan,"212 W 83rd St, New York, NY 10024, USA",http://cmom.org/,Rating: 4.2,756,Culture,"tourist attraction, museum",price level very cheap,Upper West Side South
262,40.7816285,-73.9744255,Gilder Center for Science Education and Innovation,"415 Columbus Ave, New York, NY 10024, USA",https://www.amnh.org/exhibitions/permanent/gilder-center,Rating: 4.8,7037,Culture,museum,price level very cheap,Upper West Side South
263,40.7814802,-73.9732193,Hayden Planetarium,"200 Central Prk W, New York, NY 10024, USA",https://www.amnh.org/research/hayden-planetarium,Rating: 4.6,10876,Culture,"planetarium, tourist attraction, museum",price level very cheap,Upper West Side South
264,40.781506,-73.9734537,Rose Center for Earth and Space,"200 Central Prk W, New York, NY 10024, USA",https://www.amnh.org/exhibitions/permanent/rose-center,Rating: 4.6,6385,Culture,"tourist attraction, museum",price level very cheap,Upper West Side South
265,40.7855172,-73.970608,Bard Graduate Center,"18 W 86th St, New York, NY 10024, USA",http://www.bgc.bard.edu/,Rating: 4.5,10390,Culture,"university, art gallery",price level very cheap,Upper West Side South
266,40.7829796,-73.9589706,Solomon R Guggenheim Museum,"1071 5th Ave, New York, NY 10128, USA",https://www.guggenheim.org/,Rating: 4.3,10456,Culture,"tourist attraction, museum",price level very cheap,Upper East Side North
267,40.781264,-73.9603267,Neue Galerie New York,"1048 5th Ave, New York, NY 10028, USA",http://www.neuegalerie.org/,Rating: 4.4,14100,Culture,"tourist attraction, art gallery, museum",price level expensive,Upper East Side North
268,40.7843958,-73.9578732,Cooper Hewitt Smithsonian Design Museum,"2 E 91st St, New York, NY 10128, USA",https://www.cooperhewitt.org/,Rating: 4.4,14701,Culture,"museum, tourist attraction, historical landmark, historical place",price level very cheap,Upper East Side North
269,40.785334,-73.957351,The Jewish Museum,"1109 5th Ave &, E 92nd St, New York, NY 10128, USA",https://thejewishmuseum.org/,Rating: 4.4,9329,Culture,"gift shop, museum, performing arts theater, event venue, store",price level moderate,Upper East Side North
270,40.783428,-73.958326,Salon 94,"3 E 89th St, New York, NY 10128, USA",http://www.salon94.com/,Rating: 4.4,17346,Culture,art gallery,price level very cheap,Upper East Side North
271,40.7797998,-73.9538597,Heirlooms Antiques,"177 E 87th St, New York, NY 10128, USA",http://www.heirloomsnyc.com/,Rating: 4.5,14648,Culture,"art gallery, finance, home goods store, consultant, jewelry store, store",price level very cheap,Upper East Side North
272,40.7808566,-73.9484272,Valerie Goodman Gallery,"315 E 91st St, New York, NY 10128, USA",https://www.valeriegoodmangallery.com/,Rating: 4.4,17953,Culture,art gallery,price level very cheap,Yorkville West
273,40.7808566,-73.9484272,Upper East Modern,"315 E 91st St 5th Floor, New York, NY 10128, USA",No URL,Rating: 5,511,Culture,art gallery,price level very cheap,Yorkville West
274,40.7808566,-73.9484272,Syllee Antiques,"315 E 91st St Gallery 5S, New York, NY 10128, USA",https://www.syl-leeantiques.com/,Rating: 5,10466,Culture,"art gallery, jewelry store, home goods store, store",price level very cheap,Yorkville West
275,40.7808566,-73.9484272,Primavera Gallery,"315 E 91st St 6th floor, New York, NY 10128, USA",http://www.primaveragallery.com/,Rating: 4,9327,Culture,"art gallery, jewelry store, home goods store, store",price level very cheap,Yorkville West
276,40.7797978,-73.9478991,Disturb The Neighbors,"339 E 90th St suite d, New York, NY 10128, USA",http://dtngallery.com/,Rating: 5,1663,Culture,art gallery,price level very cheap,Yorkville West
277,40.7878474,-73.9764371,Air Mattress Gallery,"2350 Broadway #207, New York, NY 10024, USA",No URL,No rating,13230,Culture,art gallery,price level very cheap,Upper West Side South
278,40.785419,-73.9764332,Wild Geese Gallery,"473 Amsterdam Ave, New York, NY 10024, USA",http://wildgeesegallery.com/,Rating: 4.5,4861,Culture,art gallery,price level very cheap,Upper West Side South
279,40.7919527,-73.9730434,Metro Frame Art,"211 W 92nd St, New York, NY 10001, USA",http://www.metroframeart.com/,Rating: 5,2569,Culture,"art gallery, store, general contractor",price level very cheap,Upper West Side North
280,40.791264700000006,-73.97460989999999,Ran Art Gallery,"2449 Broadway Bet. 90th and 91st Street, 2447 Broadway, New York, NY 10024, USA",No URL,Rating: 4.6,7179,Culture,art gallery,price level very cheap,Upper West Side North
281,40.7878377,-73.969841,Hamburg Kennedy Photographs,"54 W 89th St, New York, NY 10024, USA",http://www.hkphotographs.com/,Rating: 2.3,16236,Culture,art gallery,price level very cheap,Upper West Side North
282,40.7863761,-73.9539649,Studio 11 Gallery by appointment only,"57 E 95th St, New York, NY 10128, USA",http://www.studioelevengallery.com/,Rating: 5,7085,Culture,art gallery,price level very cheap,Upper East Side North
283,40.7855606,-73.9546989,Meredith Palmer Gallery,"40 E 94th St APT 22D, New York, NY 10128, USA",No URL,No rating,6928,Culture,art gallery,price level very cheap,Upper East Side North
284,40.7924939,-73.95190889999999,Museum of the City of New York,"1220 5th Ave, New York, NY 10029, USA",https://www.mcny.org/,Rating: 4.5,4007,Culture,"tourist attraction, museum",price level cheap,East Harlem South
285,40.7928182,-73.94606069999999,Johnnys Spaha Salsa,"1708 Lexington Ave, New York, NY 10029, USA",http://spahasalsagallery.com/,Rating: 5,17213,Culture,museum,price level very cheap,East Harlem South
286,40.791642499999995,-73.945221,Julio Valdez Studio LLC,"176 E 106th St #4, New York, NY 10029, USA",http://jvsprojectspace.com,Rating: 3.8,17966,Culture,art gallery,price level very cheap,East Harlem South
287,40.7914868,-73.95203430000001,,"17 E 102nd St, New York, NY 10029, USA",No URL,No rating,10503,Culture,museum,price level very cheap,East Harlem South
288,40.794260099999995,-73.9724827,goldenlight visions LLC,"2543 Broadway, New York, NY 10025, USA",https://www.goldenlightvisions.com/,Rating: 5,2025,Culture,"art gallery, home goods store, electronics store, store",price level very cheap,Upper West Side North
289,40.79269370000001,-73.9745777,The Lusher Gallery LLC,"666 W End Ave, New York, NY 10025, USA",https://lushergallery.com/,Rating: 5,16117,Culture,art gallery,price level very cheap,Upper West Side North
290,40.795447,-73.972751,Alan Klotz Gallery,"740 W End Ave #52, New York, NY 10025, USA",No URL,No rating,16088,Culture,art gallery,price level very cheap,Upper West Side North
291,40.7950355,-73.9657324,Play Street Museum  Upper West Side,"805 Columbus Ave, New York, NY 10025, USA",https://www.uws.playstreetmuseum.com/,Rating: 4.9,10359,Culture,"playground, child care agency, museum, amusement center, store",price level very cheap,Manhattan Valley
292,40.7951431,-73.97176879999999,Housing Works Thrift Shops  Broadway  96th St,"2569 Broadway, New York, NY 10025, USA",http://www.housingworks.org/locations/category/thrift-shops/,Rating: 4,5316,Culture,"art gallery, furniture store, home improvement store, home goods store, discount store, clothing store, store",price level cheap,Upper West Side North
293,40.7929693,-73.9708277,Arts In Action VAP,"711 Amsterdam Ave, New York, NY 10025, USA",http://www.artsinactionvap.org/,Rating: 4.7,16097,Culture,"art gallery, child care agency",price level very cheap,Upper West Side North
294,40.7946001,-73.9629228,Peg Alston Fine Arts,"407 Central Prk W Apt 1c, New York, NY 10025, USA",No URL,Rating: 5,7413,Culture,art gallery,price level very cheap,Manhattan Valley
295,40.7931183,-73.9514063,El Museo del Barrio,"1230 5th Ave, New York, NY 10029, USA",http://www.elmuseo.org/,Rating: 4.4,10447,Culture,"tourist attraction, museum",price level very cheap,East Harlem South
296,40.793166199999995,-73.94415959999999,JVS Project Space Art  Framing Gallery,"181 E 108th St, New York, NY 10029, USA",http://www.jvsprojectspace.com/,Rating: 5,17756,Culture,art gallery,price level very cheap,East Harlem South
297,40.802938999999995,-73.969002,Nicholas Roerich Museum,"319 W 107th St, New York, NY 10025, USA",https://www.roerich.org/,Rating: 4.8,6244,Culture,"museum, tourist attraction",price level very cheap,Bloomingdale
298,40.7985741,-73.97267219999999,Jacaranda Tribal,"280 Riverside Dr, New York, NY 10025, USA",http://www.jacarandatribal.com/,Rating: 1,6985,Culture,art gallery,price level very cheap,Manhattan Valley
299,40.80027510000001,-73.97086999999999,SepiaEye,"321 W 103rd St A, New York, NY 10025, USA",http://sepiaeye.com/contact/,No rating,2956,Culture,art gallery,price level very cheap,Manhattan Valley
300,40.800968399999995,-73.96238679999999,Castelli Warehouse 19681971,"103 W 108th St, New York, NY 10025, USA",No URL,No rating,8164,Culture,art gallery,price level very cheap,Bloomingdale
301,40.803486799999995,-73.9456326,Heath Gallery,"24 W 120th St, New York, NY 10027, USA",https://www.heathgallerynewyork.com/,Rating: 4.8,2801,Culture,art gallery,price level very cheap,Central Harlem
302,40.8019821,-73.95020950000001,Millennium Art  Jewelry of Harlem,"102 W 116th St, New York, NY 10026, USA",No URL,Rating: 5,9802,Culture,"jewelry store, art gallery, store",price level very cheap,Central Harlem
303,40.8036356,-73.948821,X Gallery,"163 Malcolm X Blvd, New York, NY 10026, USA",http://www.xgallery.nyc/,Rating: 4.7,13285,Culture,art gallery,price level very cheap,Central Harlem
304,40.7993293,-73.94834569999999,Boseot,"1370 5th Ave, New York, NY 10026, USA",No URL,No rating,16708,Culture,art gallery,price level very cheap,Central Harlem
305,40.804991,-73.946338,Blue Leaf International Arts Foundation,"11 W 121st St, New York, NY 10027, USA",http://lloydtoone.com/,Rating: 4.4,5497,Culture,"art gallery, guest house, lodging",price level very cheap,Central Harlem
306,40.8096897,-73.9904431,ETERI Boutique,"268 Old River Rd, Edgewater, NJ 07020, USA",http://eterimens.com/,Rating: 5,14213,Culture,"coffee shop, gift shop, art gallery, tailor, shoe store, real estate agency, cafe, clothing store, food store, event venue, consultant, store, food",price level very cheap,
307,40.811922,-73.9854176,Arcana VIII Arts Salon,"473 River Rd #159, Edgewater, NJ 07020, USA",No URL,No rating,19527,Culture,"hair salon, art gallery, hair care",price level very cheap,
308,40.8103899,-73.9605406,Macy Art Gallery,"525 W 120th St, New York, NY 10027, USA",https://www.macyartgallery.com/,Rating: 5,19690,Culture,art gallery,price level very cheap,Morningside Heights
309,40.8079381,-73.9631966,LeRoy Neiman Gallery,"Columbia University – School of the Arts 2960 Broadway Suite 310 Dodge Hall, New York, NY 10027, USA",https://arts.columbia.edu/leroy-neiman-gallery,No rating,19749,Culture,art gallery,price level very cheap,Morningside Heights
310,40.8101348,-73.9633137,Altschul Tunnel Gallery,"Lower Level, Altschul Hall, 3009 Broadway, New York, NY 10027, USA",https://barnard.edu/eventsmgmt/spaces,No rating,11863,Culture,art gallery,price level very cheap,Morningside Heights
311,40.8082859,-73.9476926,The Studio Museum in Harlem,"144 W 125th St, New York, NY 10027, USA",https://www.studiomuseum.org/,Rating: 4.4,9578,Culture,"tourist attraction, museum",price level moderate,Central Harlem
312,40.809176699999995,-73.9526052,Dwyer Cultural Center,"USA Entrance on, West 123rd Street, 258 St Nicholas Ave, New York, NY 10027, USA",http://www.dwyerculturalcenter.org/,Rating: 4.6,9238,Culture,"cultural center, art gallery",price level very cheap,Central Harlem
313,40.810227999999995,-73.953773,Faison Firehouse Theater,"6 Hancock Pl, New York, NY 10027, USA",No URL,Rating: 4.6,2402,Culture,"performing arts theater, art gallery, event venue",price level very cheap,Morningside Heights
314,40.8079612,-73.9487314,Long Gallery Harlem,"2073 Adam Clayton Powell Jr Blvd, New York, NY 10027, USA",http://www.long.gallery/,Rating: 4.9,5584,Culture,art gallery,price level very cheap,Central Harlem
315,40.807947,-73.9486019,Curtiss Jacobs Gallery,"2075 Adam Clayton Powell Jr Blvd, New York, NY 10027, USA",https://www.curtissjacobs.gallery/,Rating: 5,5979,Culture,art gallery,price level very cheap,Central Harlem
316,40.8098897,-73.9430911,The National Jazz Museum in Harlem,"58 W 129th St Ground Floor, 2203, New York, NY 10027, USA",https://jmih.org/,Rating: 4.5,16889,Culture,"museum, tourist attraction",price level very cheap,Central Harlem North
317,40.8059867,-73.9463952,HomeToHarlem,"246 Malcolm X Blvd, New York, NY 10027, USA",http://hometoharlem.nyc/,Rating: 5,13068,Culture,art gallery,price level very cheap,Central Harlem
318,40.813534,-73.9607338,Insignia Artists Management,"160 Claremont Ave, New York, NY 10027, USA",https://www.insigniaartists.com/,No rating,4411,Culture,art gallery,price level very cheap,Morningside Heights
319,40.817108399999995,-73.9587229,The Wallach Art Gallery at Columbia University Lenfest Center of the Arts,"615 W 129th St, New York, NY 10027, USA",https://wallach.columbia.edu/,Rating: 4.6,16885,Culture,"museum, tourist attraction",price level very cheap,Manhattanville
320,40.8172559,-73.9587133,The Lenfest Center for the Arts,"615 W 129th St, New York, NY 10027, USA",https://www.lenfest.arts.columbia.edu/,Rating: 4.7,1839,Culture,"event venue, art gallery",price level very cheap,Manhattanville
321,40.8142947,-73.955999,Harlem International Museum of Black History  Culture,"504 W 126th St, New York, NY 10027, USA",http://harleminternationalmuseum.org/,Rating: 4,19283,Culture,museum,price level very cheap,Manhattanville
322,40.8134533,-73.95448379999999,Studio Museum 127,"429 W 127th St f2, New York, NY 10027, USA",https://www.studiomuseum.org/,Rating: 3.8,15677,Culture,museum,price level very cheap,Manhattanville
323,40.8136528,-73.9550734,Alethias Art,"461 W 126th St, New York, NY 10027, USA",http://aleathiasart.us/,Rating: 5,4847,Culture,"art gallery, painter",price level very cheap,Manhattanville
324,40.8150273,-73.9442713,Claire Oliver Gallery,"2288 Adam Clayton Powell Jr Blvd, New York, NY 10030, USA",http://www.claireoliver.com/,Rating: 4.3,19087,Culture,art gallery,price level very cheap,Central Harlem North
325,40.8148324,-73.9436934,STUDIO MUSEUM HARLEM,"2289 Adam Clayton Powell Jr Blvd, New York, NY 10030, USA",https://www.studiomuseum.org/,No rating,10995,Culture,museum,price level very cheap,Central Harlem North
326,40.82021,-73.95852909999999,New uncanny gallery,"2335 12th Ave, New York, NY 10027, USA",http://www.newuncanny.com/,Rating: 4.8,19265,Culture,art gallery,price level very cheap,Manhattanville
327,40.8213605,-73.9473024,Hamilton Grange National Memorial,"414 W 141st St, New York, NY 10031, USA",http://www.nps.gov/hagr/index.htm,Rating: 4.5,19419,Culture,"historical place, tourist attraction, museum, historical landmark",price level very cheap,Manhattanville
328,40.824548799999995,-73.95043629999999,Broodthaers Society of America,"520 W 143rd St, New York, NY 10031, USA",http://www.broodthaers.us/,Rating: 5,15982,Culture,art gallery,price level very cheap,Hamilton Heights
329,40.817488999999995,-73.941581,Kente Royal Gallery,"2373 Adam Clayton Powell Jr Blvd, New York, NY 10030, USA",https://www.kenteroyalgallery.com/,Rating: 4.9,5372,Culture,art gallery,price level very cheap,Central Harlem North
330,40.8245082,-73.9474111,Hamilton Landmark Galleries,"467 W 144th St, New York, NY 10031, USA",No URL,Rating: 4.8,12396,Culture,art gallery,price level very cheap,Hamilton Heights
331,40.8181537,-73.9439613,Big Sky Harlem Gallery,"247 W 138th St, New York, NY 10030, USA",No URL,No rating,4455,Culture,art gallery,price level very cheap,Central Harlem North
332,40.8221737,-73.939194,Underground Gallery,"2508 Adam Clayton Powell Jr Blvd, New York, NY 10039, USA",No URL,Rating: 4,4548,Culture,art gallery,price level very cheap,Central Harlem North
333,40.8273191,-73.9870719,F  D Frame Co Inc,"667 Anderson Ave, Cliffside Park, NJ 07010, USA",No URL,Rating: 4.6,2015,Culture,"art gallery, store",price level very cheap,
334,40.8264076,-73.94466870000001,Essie Green Galleries Inc,"4213, A, 419 Convent Ave, New York, NY 10031, USA",https://www.essiegreengalleries.com/,Rating: 4.6,15014,Culture,art gallery,price level very cheap,Hamilton Heights
335,40.8305666,-73.9469641,Zenith Art  Fashion,"594 W 152nd St, New York, NY 10031, USA",https://zenithartandfashion.com/,Rating: 4.8,16441,Culture,"museum, store",price level very cheap,Hamilton Heights
336,40.826412,-73.945236,The Phalanstery,"410 Convent Ave, New York, NY 10031, USA",https://www.thephalanstery.com/,No rating,5894,Culture,art gallery,price level very cheap,Hamilton Heights
337,40.833737,-73.9471085,American Academy of Arts and Letters,"Audubon Terrace, Broadway between West 155th and, W 156th St, New York, NY 10032, USA",http://www.artsandletters.org/,Rating: 4.9,8301,Culture,"art gallery, library",price level very cheap,Washington Heights South
338,40.833183,-73.946091,Hispanic Society Museum  Library,"3741 Broadway, New York, NY 10032, USA",http://www.hispanicsociety.org/,Rating: 4.4,9025,Culture,"tourist attraction, library, museum",price level very cheap,Washington Heights South
339,40.8304589,-73.94118999999999,Sugar Hill Childrens Museum of Art  Storytelling,"898 St Nicholas Ave, New York, NY 10032, USA",http://www.sugarhillmuseum.org/,Rating: 4.5,17612,Culture,"tourist attraction, art gallery, museum",price level very cheap,Hamilton Heights
340,40.8324894,-73.9426783,Sisters Uptown Bookstore,"1942 Amsterdam Ave, New York, NY 10032, USA",http://www.sistersuptownbookstore.com/,Rating: 4.8,15395,Culture,"book store, cultural center, internet cafe, art gallery, event venue, store",price level very cheap,Washington Heights South
341,40.8321465,-73.9452352,Childrens Cultural Center of Native America,"550 W 155th St, New York, NY 10032, USA",No URL,Rating: 4.8,10317,Culture,"cultural center, tourist attraction, museum",price level very cheap,Hamilton Heights
342,40.84623,-73.97810679999999,Original Art By Gilda,"340 Tremont Ave, Fort Lee, NJ 07024, USA",No URL,No rating,10117,Culture,art gallery,price level very cheap,
343,40.8483919,-73.9688268,Fort Lee Museum,"1589 Parker Ave, Fort Lee, NJ 07024, USA",https://www.fortleenj.org/facilities/facility/details/Fort-Lee-Museum-30,Rating: 4.6,9075,Culture,"tourist attraction, museum",price level very cheap,
344,40.850278499999995,-73.9624813,Fort Lee Historic Park Palisades Interstate Park Commission,"Hudson Terrace, Fort Lee, NJ 07024, USA",http://www.njpalisades.org/fortlee.html,Rating: 4.6,14825,Culture,"park, tourist attraction, museum",price level very cheap,
345,40.8557864,-73.99161149999999,NUART,"149 Broad Ave, Leonia, NJ 07605, USA",https://www.nuartleonia.org/,Rating: 5,6691,Culture,"art studio, art gallery",price level very cheap,
346,40.855267,-73.977552,Frames of Mine,"482 Main St, Fort Lee, NJ 07024, USA",https://framesofmine.com/,Rating: 4.8,11484,Culture,"art gallery, gift shop, home goods store, store",price level very cheap,
347,40.8514235,-73.9705604,Pure Bliss Yoga,"209 Main St 2nd Floor, Fort Lee, NJ 07024, USA",https://pureblissyoga.com/,Rating: 4.8,14340,Culture,"yoga studio, art gallery, fitness center, sports complex, gym, sports activity location, health",price level very cheap,
348,40.85161310000001,-73.9730476,Studio Berry Photography,"1633 Center Ave, Fort Lee, NJ 07024, USA",http://studioberry.com/,Rating: 4.5,10340,Culture,"art gallery, child care agency, clothing store, health, store",price level very cheap,
349,40.8511049,-73.96771,Barrymore Film Center,"153 Main St, Fort Lee, NJ 07024, USA",https://www.barrymorefilmcenter.com/,Rating: 4.7,16115,Culture,"movie theater, museum, event venue",price level very cheap,
350,40.855671,-73.96846,Paris Koh Fine Arts,"201 Brg Plz N #1, Fort Lee, NJ 07024, USA",http://pariskohfinearts.com/,Rating: 5,7160,Culture,art gallery,price level very cheap,
351,40.8623019,-73.98784669999999,Gallery Episode,"330 Broad Ave Unit B, Leonia, NJ 07605, USA",http://www.galleryepisode.com/,Rating: 5,2143,Culture,"art gallery, store",price level very cheap,
352,40.8572008,-73.9798713,ARABESQUE,"560 Main St, Fort Lee, NJ 07024, USA",http://www.arabesquenj.com/,Rating: 5,9796,Culture,"furniture store, art gallery, gift shop, home improvement store, home goods store, store",price level very cheap,
353,40.8683102,-73.9695579,Mostly Glass Gallery,"34 Hidden Ledge Rd, Englewood, NJ 07631, USA",http://mostlyglass.com/,No rating,17407,Culture,art gallery,price level very cheap,
354,40.7034205,-73.9921457,Time Out Market New York,"55 Water St, Brooklyn, NY 11201, USA",https://www.timeoutmarket.com/newyork/,Rating: 4.5,16570,"Restaurant, Bar","food court, banquet hall, market, bar, event venue, restaurant, food",price level moderate,DUMBO/Vinegar Hill
355,40.7038391,-73.99146209999999,Cecconis,"55 Water St, Brooklyn, NY 11201, USA",http://cecconisdumbo.com/?utm_source=google&utm_medium=organic&utm_campaign=googlemybusiness,Rating: 4.1,11021,Restaurant,"restaurant, food",price level moderate,DUMBO/Vinegar Hill
356,40.7026459,-73.993247,Grimaldis Pizzeria,"1 Front St, Brooklyn, NY 11201, USA",https://www.grimaldispizzeria.com/locations/1-front-street-brooklyn/,Rating: 4.2,18006,"Restaurant, Bar","pizza restaurant, wine bar, italian restaurant, bar, restaurant, food",price level moderate,DUMBO/Vinegar Hill
357,40.7027467,-73.9934349,Julianas,"19 Old Fulton St, Brooklyn, NY 11201, USA",https://www.julianaspizza.com/,Rating: 4.6,10080,Restaurant,"pizza restaurant, restaurant, food",price level moderate,DUMBO/Vinegar Hill
358,40.7026045,-73.9941637,Arabica,"20 Old Fulton St, Brooklyn, NY 11201, USA",https://arabicacoffeeus.com/,Rating: 4.4,11336,Restaurant,"coffee shop, cafe, food store, store, food",price level cheap,Brooklyn Heights
359,40.7005446,-73.9874945,Randolph Beer,"82 Prospect St, Brooklyn, NY 11201, USA",http://www.randolphbeer.com/,Rating: 4.3,6297,"Restaurant, Bar","video arcade, amusement center, pub, bar, event venue, restaurant, food",price level moderate,Downtown Brooklyn/MetroTech
360,40.7034118,-73.9918412,Bark Barbecue,"55 Water St #5FL, Brooklyn, NY 11201, USA",No URL,Rating: 4.2,19131,Restaurant,"barbecue restaurant, restaurant, food",price level very cheap,DUMBO/Vinegar Hill
361,40.7030842,-73.9940877,Shake Shack Dumbo,"2 Water St, Brooklyn, NY 11201, USA",https://www.shakeshack.com/location/dumbo-ny?utm_source=google&utm_medium=listing,Rating: 4.3,17770,Restaurant,"hamburger restaurant, sandwich shop, dessert restaurant, fast food restaurant, catering service, food delivery, meal takeaway, american restaurant, restaurant, food",price level moderate,DUMBO/Vinegar Hill
362,40.7000387,-73.9937693,Ingas Bar,"66 Hicks St, Brooklyn, NY 11201, USA",https://instagram.com/ingasbarnyc?igshid=YmMyMTA2M2Y=,Rating: 4.5,12514,Restaurant,"restaurant, food",price level moderate,Brooklyn Heights
363,40.7019271,-73.9894984,Westville Dumbo,"81 Washington St, Brooklyn, NY 11201, USA",https://westvillenyc.com/locations/westvile-dumbo/,Rating: 4.5,9085,Restaurant,"american restaurant, restaurant, food",price level moderate,DUMBO/Vinegar Hill
364,40.7016804,-73.986543,Devocin,"105 York St, Brooklyn, NY 11201, USA",http://www.devocion.com/,Rating: 4.4,14209,Restaurant,"coffee shop, cafe, food store, store, food",price level very cheap,DUMBO/Vinegar Hill
365,40.6983742,-73.993038,Vineapple,"71 Pineapple St, Brooklyn, NY 11201, USA",http://www.vineapple.cafe/,Rating: 4.5,6018,"Restaurant, Bar","restaurant, wine bar, coffee shop, cafe, italian restaurant, breakfast restaurant, bar, food store, store, food",price level moderate,Brooklyn Heights
366,40.7026036,-73.9869185,Lucky Rabbit Noodles,"151 Front St, Brooklyn, NY 11201, USA",https://luckyrabbitnoodles.square.site/,Rating: 4.7,16145,Restaurant,"restaurant, food",price level moderate,DUMBO/Vinegar Hill
367,40.7032815,-73.9923292,Butler,"40 Water St, Brooklyn, NY 11201, USA",http://www.butler-nyc.com/,Rating: 4.5,7815,Restaurant,"coffee shop, cafe, bakery, food store, food, store",price level cheap,DUMBO/Vinegar Hill
368,40.6974361,-73.9932444,Clarks,"80 Clark St, Brooklyn, NY 11201, USA",https://www.clarksdiner.com/,Rating: 4.4,10325,Restaurant,"diner, restaurant, food",price level moderate,Brooklyn Heights
369,40.7029376,-73.99056759999999,Evil Twin Brewing NYC  DUMBO,"43 Main St, Brooklyn, NY 11201, USA",https://eviltwin.nyc/location/dumbo-taproom/,Rating: 4.5,12928,Restaurant,"coffee shop, cafe, food store, food, store",price level moderate,DUMBO/Vinegar Hill
370,40.7027544,-73.9908837,Starbucks,"67 Main St, Brooklyn, NY 11201, USA",https://www.starbucks.com/store-locator/store/16940/,Rating: 3.8,9019,Restaurant,"coffee shop, breakfast restaurant, internet cafe, cafe, food store, restaurant, food, store",price level moderate,DUMBO/Vinegar Hill
371,40.7022385,-73.99319109999999,LB Spumoni Gardens,"46 Old Fulton St, Brooklyn, NY 11201, USA",https://spumonigardens.com/,Rating: 4.4,15464,Restaurant,"pizza restaurant, italian restaurant, restaurant, food",price level very cheap,Brooklyn Heights
372,40.7023726,-73.9875072,Superfine,"126 Front St, Brooklyn, NY 11201, USA",https://www.superfine.nyc/,Rating: 4.4,9219,"Restaurant, Bar","restaurant, brunch restaurant, bar, event venue, food",price level moderate,DUMBO/Vinegar Hill
373,40.7025037,-73.986314,BEEPUBLIC,"181 Front St, Brooklyn, NY 11201, USA",http://beepubliccoffee.com/,Rating: 4.6,11230,"Restaurant, Bar","coffee shop, cafe, vegan restaurant, vegetarian restaurant, bar, food store, store, restaurant, food",price level moderate,DUMBO/Vinegar Hill
374,40.7027648,-73.9812524,Vinegar Hill House,"72 Hudson Ave, Brooklyn, NY 11201, USA",http://www.vinegarhillhouse.com/,Rating: 4.4,19017,"Restaurant, Bar","fine dining restaurant, brunch restaurant, american restaurant, bar, restaurant, food",price level moderate,DUMBO/Vinegar Hill
375,40.7008302,-73.9883345,Bluestone Lane DUMBO Caf,"55 Prospect St, Brooklyn, NY 11201, USA",https://bluestonelane.com/coffee-shops/dumbo-55-prospect-st-brooklyn-new-york/?y_source=1_ODc5Mjg5NS03MTUtbG9jYXRpb24ud2Vic2l0ZQ%3D%3D,Rating: 4.4,14107,"Restaurant, Bar","coffee shop, cafe, bar, food store, restaurant, food, store",price level moderate,DUMBO/Vinegar Hill
376,40.700444399999995,-73.9881107,ippudo V Brooklyn,"117 Adams St, Brooklyn, NY 11201, USA",https://ippudous.com/,Rating: 4.7,13353,Restaurant,"ramen restaurant, japanese restaurant, restaurant, food",price level very cheap,Downtown Brooklyn/MetroTech
377,40.7038367,-73.98673149999999,fontainhas  dukaan,"28 Jay St, Brooklyn, NY 11201, USA",http://www.fontainhasnyc.com/,Rating: 4.7,1184,"Restaurant, Bar","cafe, brunch restaurant, cafeteria, wine bar, coffee shop, bar, food store, store, restaurant, food",price level very cheap,DUMBO/Vinegar Hill
378,40.7038464,-73.98699690000001,usagi,"163 Plymouth St, Brooklyn, NY 11201, USA",http://usaginy.com/,Rating: 4.6,11899,Restaurant,"art gallery, cafe, book store, home goods store, store, food",price level very cheap,DUMBO/Vinegar Hill
379,40.7023963,-73.9894556,Front Street Pizza,"80 Front St, Brooklyn, NY 11201, USA",https://www.frontstreetpizzadumbo.com/,Rating: 4.3,8167,Restaurant,"pizza restaurant, fast food restaurant, cafe, deli, food store, store, restaurant, food",price level cheap,DUMBO/Vinegar Hill
380,40.7026036,-73.9869185,Bread  Spread,"151 Front St, Brooklyn, NY 11201, USA",https://breadandspread.getsauce.com/,Rating: 4.6,2569,Restaurant,"sandwich shop, restaurant, food",price level moderate,DUMBO/Vinegar Hill
381,40.702244799999995,-73.9849383,Nobody Told Me,"188 Front St, Brooklyn, NY 11201, USA",https://nobodytoldme.nyc/,Rating: 4.6,5227,"Restaurant, Bar","bar, restaurant, food",price level moderate,DUMBO/Vinegar Hill
382,40.6996359,-73.98020249999999,Kings County Distillery,"299 Sands St, Brooklyn, NY 11205, USA",http://www.kingscountydistillery.com/,Rating: 4.7,6692,"Restaurant, Bar","liquor store, bar, store",price level very cheap,Brooklyn Navy Yard
383,40.7031021,-73.98941429999999,Gair,"41 Washington St, Brooklyn, NY 11201, USA",https://gair-dumbo.com/,Rating: 4.4,17088,"Restaurant, Bar","bar, restaurant, food",price level very cheap,DUMBO/Vinegar Hill
384,40.702753900000005,-73.9887061,Malka,"56 Adams St, Brooklyn, NY 11201, USA",https://www.malka-usa.com/dumbo,Rating: 4.6,6364,Restaurant,"restaurant, food",price level very cheap,DUMBO/Vinegar Hill
385,40.696463699999995,-73.9882724,Brooklyn Bridge Bistro,"63 Tillary St, Brooklyn, NY 11201, USA",https://www.brooklynbridgebistro.com/,Rating: 4,7394,Restaurant,"restaurant, food",price level moderate,Downtown Brooklyn/MetroTech
386,40.702663699999995,-73.98917449999999,AlMar,"111 Front St, Brooklyn, NY 11201, USA",http://www.almardumbo.com/,Rating: 4.3,11481,"Restaurant, Bar","italian restaurant, brunch restaurant, bar, restaurant, food",price level moderate,DUMBO/Vinegar Hill
387,40.7030011,-73.9868145,68 Jay Street Bar,"68 Jay St, Brooklyn, NY 11201, USA",http://www.68jaystreet.bar/,Rating: 4.3,4879,"Restaurant, Bar",bar,price level cheap,DUMBO/Vinegar Hill
388,40.7028244,-73.981267,Cafe Gitane,"70 Hudson Ave, Brooklyn, NY 11201, USA",https://www.cafegitanenyc.com/,Rating: 4.6,19458,Restaurant,"french restaurant, cafe, restaurant, food",price level moderate,DUMBO/Vinegar Hill
389,40.7022222,-73.9844444,Bridge Coffee Shop,"73 Bridge St, Brooklyn, NY 11201, USA",No URL,Rating: 4.4,157,Restaurant,"spanish restaurant, restaurant, food",price level cheap,DUMBO/Vinegar Hill
390,40.6996301,-73.98025,The Gatehouses,"Kings County Distillery, 299 Sands St, Brooklyn, NY 11205, USA",https://www.kingscountydistillery.com/the-gatehouses,Rating: 4.7,5906,"Restaurant, Bar",bar,price level moderate,Brooklyn Navy Yard
391,40.6984249,-73.9797167,Starbucks,"3 Flushing Ave, Brooklyn, NY 11205, USA",No URL,Rating: 3.9,6986,Restaurant,"coffee shop, internet cafe, cafe, breakfast restaurant, food store, store, restaurant, food",price level moderate,Brooklyn Navy Yard
392,40.7015751,-73.9845356,Annies First Wok,"155 York St, Brooklyn, NY 11201, USA",No URL,Rating: 4.2,14235,Restaurant,"chinese restaurant, restaurant, food",price level cheap,DUMBO/Vinegar Hill
393,40.703170199999995,-73.9837946,Juice Haus Dumbo,"257 Water St, Brooklyn, NY 11201, USA",https://padel.haus/juice-bar.php,Rating: 4.8,14172,Restaurant,"juice shop, coffee shop, cafe, food store, store, food",price level very cheap,DUMBO/Vinegar Hill
394,40.7012892,-73.9847,SoulTye,"183 York St, Brooklyn, NY 11201, USA",https://www.instagram.com/soultyellc?igsh=MWJleG5paHY4MzY0eA==,Rating: 5,6645,Restaurant,"american restaurant, restaurant, food",price level very cheap,DUMBO/Vinegar Hill
395,40.702873499999995,-73.9843492,Social Cues The Gallery,"236 Water St, Brooklyn, NY 11201, USA",http://www.socialcues.com/,Rating: 4.9,12530,"Night Club, Bar","event venue, karaoke, night club, sports club, bar",price level very cheap,DUMBO/Vinegar Hill
396,40.6962574,-73.9827734,Plantega Gold Organic Farm,"277 Gold St, Brooklyn, NY 11201, USA",https://eatplantega.com/,No rating,13607,Restaurant,"deli, vegan restaurant, vegetarian restaurant, food store, store, restaurant, food",price level moderate,Downtown Brooklyn/MetroTech
397,40.6983268,-73.97930140000001,Market Caf  Bar,"Brooklyn, NY 11201, USA",No URL,Rating: 4.7,10739,Restaurant,"restaurant, food",price level very cheap,Brooklyn Navy Yard
398,40.6967047,-73.98302989999999,WingMen,"257 Gold St, Brooklyn, NY 11201, USA",https://www.grubhub.com/restaurant/wingmen-257-gold-st-brooklyn/3184415,Rating: 1,7985,Restaurant,"restaurant, food",price level very cheap,Downtown Brooklyn/MetroTech
399,40.6981037,-73.9710688,Russ  Daughters Brooklyn,"141 Flushing Ave Building 77, Brooklyn, NY 11205, USA",http://www.russanddaughters.com/,Rating: 4,5099,Restaurant,"bagel shop, meal takeaway, bakery, food store, store, restaurant, food",price level moderate,Brooklyn Navy Yard
400,40.6990003,-73.97122250000001,Transmitter Brewing,"141 Flushing Ave Building 77, Brooklyn, NY 11205, USA",http://www.transmitterbrewing.com/,Rating: 4.6,6311,"Restaurant, Bar","bar, food",price level very cheap,Brooklyn Navy Yard
401,40.6975344,-73.97096359999999,Head Hi,"146 Flushing Ave, Brooklyn, NY 11205, USA",http://www.headhi.net/,Rating: 4.4,16033,Restaurant,"coffee shop, gift shop, art gallery, cafe, book store, food store, store, food",price level very cheap,Fort Greene
402,40.6975505,-73.971958,Holy Pita,"10 Clermont Ave, Brooklyn, NY 11205, USA",http://www.holypita.com/,Rating: 4.6,8272,Restaurant,"mediterranean restaurant, middle eastern restaurant, restaurant, food",price level moderate,Fort Greene
403,40.698169799999995,-73.9710137,Pizza Yard,"141 Flushing Ave, Brooklyn, NY 11205, USA",http://pizzayard.nyc/,Rating: 4.5,6206,Restaurant,"pizza restaurant, coffee shop, cafe, meal takeaway, food store, store, restaurant, food",price level moderate,Brooklyn Navy Yard
404,40.6963318,-73.9727525,Tiger Box,"169 Park Ave, Brooklyn, NY 11205, USA",https://www.tigerboxtogo.com/,Rating: 4.6,3466,Restaurant,"korean restaurant, seafood restaurant, meal delivery, food delivery, meal takeaway, asian restaurant, restaurant, food",price level moderate,Fort Greene
405,40.6989296,-73.97099589999999,Rustik  the Brooklyn Navy Yard,"Building 77, Brooklyn, NY 11205, USA",http://www.rustiktavern.com/,Rating: 4.3,162,"Restaurant, Bar","bar, american restaurant, restaurant, food",price level moderate,Brooklyn Navy Yard
406,40.6963361,-73.9743264,Park Avenue Luncheonette,"131 Park Ave, Brooklyn, NY 11205, USA",No URL,Rating: 4.1,15693,Restaurant,"restaurant, food",price level cheap,Fort Greene
407,40.6978161,-73.9729493,MJ Navy Yard Sub Shoppe,"108 Flushing Ave, Brooklyn, NY 11205, USA",No URL,Rating: 4.2,9257,Restaurant,"sandwich shop, meal delivery, food delivery, restaurant, food",price level cheap,Fort Greene
408,40.6966281,-73.9753155,New Dragon Palace,"47 N Oxford St, Brooklyn, NY 11205, USA",No URL,Rating: 4,14583,Restaurant,"chinese restaurant, restaurant, food",price level cheap,Fort Greene
409,40.6985551,-73.9712029,Hungry House,"141 Flushing Ave Building 77, Brooklyn, NY 11205, USA",http://orderhungryhouse.com/,Rating: 3.4,6864,Restaurant,"restaurant, meal delivery, food delivery, food",price level cheap,Brooklyn Navy Yard
410,40.7006209,-73.9723049,The Galley Food Hall  Dock 72,"Located In Dock 72, 1 Dock 72 Wy, Brooklyn, NY 11205, USA",No URL,Rating: 4,5056,Restaurant,"restaurant, food",price level very cheap,Brooklyn Navy Yard
411,40.697774599999995,-73.9716088,66s Fusion  Asian Fusion,"130 Flushing Ave, Brooklyn, NY 11205, USA",http://www.66sfusion.com/,Rating: 4,16155,"Restaurant, Bar","japanese restaurant, asian restaurant, american restaurant, bar, restaurant, food",price level moderate,Fort Greene
412,40.696376099999995,-73.9729804,GMC Temaxcal,"163 Park Ave #7, Brooklyn, NY 11205, USA",No URL,Rating: 4.3,2765,Restaurant,"restaurant, mexican restaurant, grocery store, food store, store, food",price level cheap,Fort Greene
413,40.696418099999995,-73.97313129999999,Parks Deli  Grill,"155 Park Ave, Brooklyn, NY 11205, USA",No URL,Rating: 4.1,8365,Restaurant,"convenience store, food store, store, restaurant, food",price level very cheap,Fort Greene
414,40.6976277,-73.9710375,Bklyn Blue Creative  CANVAS Galleries,"141 Flushing Ave, Brooklyn, NY 11205, USA",https://instagram.com/bklynbluecafe.creativelounge,No rating,8203,Restaurant,"cafe, food",price level very cheap,Fort Greene
415,40.6963066,-73.9677013,Le Petit Monstre,"82 Washington Ave, Brooklyn, NY 11205, USA",http://www.lepetitmonstre.com/,Rating: 4.6,18285,"Restaurant, Bar","bakery, wine bar, bar, food store, food, store",price level very cheap,Brooklyn Navy Yard
416,40.6976242,-73.9679786,Brooklyn Roasting Company,"200 Flushing Ave, Brooklyn, NY 11205, USA",http://www.brooklynroasting.com,Rating: 4.4,7114,Restaurant,"coffee shop, cafe, food store, food, store",price level moderate,Brooklyn Navy Yard
417,40.6974156,-73.96745179999999,Il Porto Ristorante  Wood Fired Pizza,"37 Washington Ave, Brooklyn, NY 11205, USA",https://www.ilportobrooklyn.com/,Rating: 4.5,7766,Restaurant,"italian restaurant, fast food restaurant, food court, restaurant, food",price level moderate,Brooklyn Navy Yard
418,40.6961073,-73.9681653,Body By Brooklyn,"275 Park Ave, Brooklyn, NY 11205, USA",http://www.bodybybrooklyn.com/,Rating: 4,3189,"Night Club, Bar","spa, massage, night club, bar, restaurant, food",price level very cheap,Brooklyn Navy Yard
419,40.697573299999995,-73.9678749,Brooklyn taqueria,"40 Washington Ave, Brooklyn, NY 11205, USA",https://www.grubhub.com/restaurant/3207349?utm_source=grubhub_web&utm_medium=content_owned&utm_campaign=menushare&utm_content=share-link,Rating: 4.6,2683,Restaurant,"mexican restaurant, restaurant, food",price level very cheap,Brooklyn Navy Yard
420,40.697523,-73.9679197,Burger UrWay,"40 Washington Ave, Brooklyn, NY 11205, USA",http://burgerurway.com/,Rating: 3.7,9880,Restaurant,"hamburger restaurant, american restaurant, restaurant, food",price level cheap,Brooklyn Navy Yard
421,40.6968755,-73.9707951,Resident,"34 Vanderbilt Ave, Brooklyn, NY 11205, USA",https://meetresident.com/,Rating: 4.7,1486,Restaurant,"fine dining restaurant, event venue, restaurant, food",price level very cheap,Fort Greene
422,40.6995722,-73.9596518,Brooklyn Bagel,"7 Heyward St, Brooklyn, NY 11249, USA",http://brooklynbagelny.com/,Rating: 4,12464,Restaurant,"bagel shop, coffee shop, breakfast restaurant, cafe, bakery, restaurant, food store, food, store",price level moderate,South Williamsburg
423,40.698566,-73.966657,Farmers Fridge,"Located in the Feirstein cafe area near the student printer, 25 Washington Ave, Brooklyn, NY 11205, USA",https://www.farmersfridge.com/,No rating,15090,Restaurant,"cafeteria, restaurant, food",price level very cheap,Brooklyn Navy Yard
424,40.6966959,-73.96771319999999,LPM Bar,"82 Washington Ave, Brooklyn, NY 11205, USA",No URL,No rating,17446,"Restaurant, Bar",bar,price level very cheap,Brooklyn Navy Yard
425,40.7036713,-73.960365,Kleins Kosher,"595 Bedford Ave, Brooklyn, NY 11211, USA",No URL,Rating: 4.7,13991,Restaurant,"restaurant, food",price level cheap,South Williamsburg
426,40.6997209,-73.95631879999999,Gshmak Bakery and Cafe,"164 Wallabout St, Brooklyn, NY 11206, USA",http://gshmakbakery.com/,Rating: 4.7,18699,Restaurant,"bakery, sandwich shop, cafe, food store, restaurant, food, store",price level moderate,Bedford
427,40.7022286,-73.9558775,Caf Au Lee,"193 Lee Ave, Brooklyn, NY 11211, USA",http://cafeaulee.com/,Rating: 4.6,16191,Restaurant,"meal delivery, food delivery, restaurant, food",price level moderate,South Williamsburg
428,40.7038273,-73.95812120000001,Greenfelds,"128 Lee Ave, Brooklyn, NY 11211, USA",http://www.greenfelds.com/,Rating: 4.8,7474,Restaurant,"food store, meal takeaway, restaurant, food, store",price level very cheap,South Williamsburg
429,40.6964909,-73.9581262,Park Fish Market,"458 Park Ave, Brooklyn, NY 11205, USA",No URL,Rating: 4.9,10719,Restaurant,"restaurant, food",price level very cheap,Bedford
430,40.6985219,-73.9592121,Fialkoffs Kosher Pizza Williamsburg,"392 Flushing Ave, Brooklyn, NY 11205, USA",http://fialkoffskosherpizza.com/,Rating: 5,19397,Restaurant,"meal takeaway, restaurant, food",price level very cheap,Bedford
431,40.6985219,-73.9592121,Rosemary Sushi,"392 Flushing Ave, Brooklyn, NY 11205, USA",https://rosemarysushi.com/,Rating: 5,4760,Restaurant,"food court, sushi restaurant, meal takeaway, japanese restaurant, restaurant, food",price level very cheap,Bedford
432,40.6983479,-73.95922399999999,Green Lips At Rosemary Supermarket,"392 Flushing Ave, Brooklyn, NY 11205, USA",http://www.greenlips.com/,Rating: 4.8,9370,Restaurant,"juice shop, acai shop, brazilian restaurant, restaurant, food",price level very cheap,Bedford
433,40.6985333,-73.95619359999999,Tower cafe Tower 18,"18 Spencer St, Brooklyn, NY 11205, USA",https://order.online/business/cafe-28--tower-18-12758199,Rating: 4.5,766,Restaurant,"cafeteria, coffee shop, cafe, restaurant, food store, food, store",price level cheap,Bedford
434,40.6983859,-73.9572187,Sushi Studio,"744 Bedford Ave, Brooklyn, NY 11205, USA",https://www.hatzlachakosher.com/,Rating: 5,15575,Restaurant,"sushi restaurant, japanese restaurant, restaurant, food",price level very cheap,Bedford
435,40.7036021,-73.9575672,Burger King,"General, Lee Ave Bldg 123, Brooklyn, NY 11252, USA",https://burgerking.com/store-locator/store/restaurant_4727,Rating: 1,4758,Restaurant,"fast food restaurant, breakfast restaurant, restaurant, food",price level very cheap,South Williamsburg
436,40.6984469,-73.95707920000001,Hatzlacha Lunch Box,"744 Bedford Ave, Brooklyn, NY 11205, USA",https://www.order.store/store/hatzlachas-lunch-box/y735o5yjT1K2HeGnfYxi-Q,Rating: 5,10163,Restaurant,"restaurant, food",price level very cheap,Bedford
437,40.6983859,-73.9572187,Breakfast Bar,"744 Bedford Ave, Brooklyn, NY 11205, USA",https://www.hatzlachakosher.com/,Rating: 1,8683,Restaurant,"breakfast restaurant, restaurant, food",price level very cheap,Bedford
438,40.7034176,-73.95717669999999,Seacress,"151 Lee Ave, Brooklyn, NY 11211, USA",No URL,Rating: 4.8,7107,Restaurant,"meal takeaway, restaurant, food",price level very cheap,South Williamsburg
439,40.696418,-73.959769,CHAIPOT,"422-454 Park Ave, Brooklyn, NY 11205, USA",No URL,Rating: 5,19992,Restaurant,"cafe, food",price level very cheap,Bedford
440,40.6998186,-73.95385519999999,Mozzarella Kosher,"264 Lee Ave, Brooklyn, NY 11206, USA",https://www.mozzarellakosher.com/,Rating: 4.5,10171,Restaurant,"pizza restaurant, fast food restaurant, meal takeaway, meal delivery, food delivery, restaurant, food",price level moderate,Bedford
441,40.7039614,-73.95491969999999,Cheesy Kosher,"314 Marcy Ave, Brooklyn, NY 11211, USA",http://www.cheesykosher.com/,Rating: 4.7,4444,Restaurant,"restaurant, food",price level cheap,South Williamsburg
442,40.6964185,-73.95304229999999,Five star deli food market,"110 Nostrand Ave, Brooklyn, NY 11207, USA",No URL,Rating: 4.3,8738,Restaurant,"deli, grocery store, food store, store, restaurant, food",price level very cheap,Bedford
443,40.6997723,-73.9501101,Atefs Food cart,"Flushing Ave &, Marcy Ave, Brooklyn, NY 11206, USA",No URL,Rating: 5,783,Restaurant,"coffee shop, cafe, food store, store, food",price level very cheap,Bedford
444,40.697088099999995,-73.9548757,Charlies Corner,"537 Park Ave, Brooklyn, NY 11205, USA",No URL,Rating: 4.2,19595,Restaurant,"spanish restaurant, american restaurant, restaurant, food",price level very cheap,Bedford
445,40.7017016,-73.9518942,KARP FAMILY,"405 Marcy Ave, Brooklyn, NY 11206, USA",No URL,No rating,17861,Restaurant,"cafe, food",price level very cheap,South Williamsburg
446,40.7000865,-73.9458097,Winonas,"676 Flushing Ave, Brooklyn, NY 11206, USA",http://www.winonasbk.com/,Rating: 4.7,15330,Restaurant,"american restaurant, restaurant, food",price level very cheap,Bedford
447,40.7015792,-73.94947189999999,Foodoo Kosher Supermarket,"249 Wallabout St, Brooklyn, NY 11206, USA",http://www.foodookosher.com/,Rating: 4.7,9093,Restaurant,"supermarket, bakery, butcher shop, breakfast restaurant, meal takeaway, grocery store, deli, food store, store, restaurant, food",price level very cheap,Bedford
448,40.7040021,-73.9484817,Caf 28,"28 Throop Ave, Brooklyn, NY 11206, USA",https://www.cafe28ny.com/,Rating: 4.7,12399,Restaurant,"sandwich shop, pizza restaurant, cafe, breakfast restaurant, restaurant, food",price level cheap,South Williamsburg
